name,latitude,longitude,city,region,cuisine,price,url,rating
kilian_stuba,47.34858,10.17114,kleinwalsertal,austria,creative,5,https://guide.michelin.com/at/en/vorarlberg/kleinwalsertal/restaurant/kilian-stuba,1
pfefferschiff,47.83787,13.07917,hallwang,austria,classic,5,https://guide.michelin.com/at/en/salzburg-region/hallwang/restaurant/pfefferschiff,1
esszimmer,47.80685,13.03409,salzburg,austria,creative,5,https://guide.michelin.com/at/en/salzburg-region/salzburg/restaurant/esszimmer,1
carpe_diem,47.80001,13.04006,salzburg,austria,market,5,https://guide.michelin.com/at/en/salzburg-region/salzburg/restaurant/carpe-diem,1
edvard,48.216503,16.36852,wien,austria,modern,4,https://guide.michelin.com/at/en/vienna/wien/restaurant/edvard,1
das_loft,48.21272,16.37931,wien,austria,modern,5,https://guide.michelin.com/at/en/vienna/wien/restaurant/das-loft,1
pramerl_the_wolf,48.20945,16.37174,wien,austria,creative,5,https://guide.michelin.com/at/en/vienna/wien/restaurant/pramerl-the-wolf,1
walter_bauer,48.20923,16.376720000000002,wien,austria,classic,5,https://guide.michelin.com/at/en/vienna/wien/restaurant/walter-bauer,1
shiki,48.204067,16.37098,wien,austria,japanese,5,https://guide.michelin.com/at/en/vienna/wien/restaurant/shiki,1
tian,48.20513,16.37456,wien,austria,vegetarian,5,https://guide.michelin.com/at/en/vienna/wien/restaurant/tian,1
aend,48.18957,16.34115,wien,austria,modern,5,https://guide.michelin.com/at/en/vienna/wien/restaurant/aend,1
le_ciel_by_toni_morwald,48.202090000000005,16.371560000000002,wien,austria,classic,5,https://guide.michelin.com/at/en/vienna/wien/restaurant/le-ciel-by-toni-morwald,1
chez_tj,37.39468,-122.08044,san_francisco,california,contemporary,4,https://guide.michelin.com/us/en/california/south-san-francisco/restaurant/chez-tj,1
protege,37.427853000000006,-122.14362,san_francisco,california,contemporary,3,https://guide.michelin.com/us/en/california/south-san-francisco/restaurant/protege,1
madera,37.42014,-122.21151,san_francisco,california,contemporary,3,https://guide.michelin.com/us/en/california/san-francisco/restaurant/madera,1
the_village_pub,37.42897,-122.25178,san_francisco,california,contemporary,3,https://guide.michelin.com/us/en/california/san-francisco/restaurant/the-village-pub,1
plumed_horse,37.25648,-122.03537,san_francisco,california,contemporary,4,https://guide.michelin.com/us/en/california/south-san-francisco/restaurant/plumed-horse,1
wakuriya,37.52114,-122.3366,san_francisco,california,japanese,4,https://guide.michelin.com/us/en/california/san-francisco/restaurant/wakuriya,1
sushi_yoshizumi,37.565075,-122.3211,san_francisco,california,japanese,4,https://guide.michelin.com/us/en/california/san-francisco/restaurant/sushi-yoshizumi,1
rasa,37.577522,-122.345985,san_francisco,california,indian,2,https://guide.michelin.com/us/en/california/san-francisco/restaurant/rasa,1
maum,37.726690000000005,-122.41421499999998,san_francisco,california,korean,4,https://guide.michelin.com/us/en/california/south-san-francisco/restaurant/maum,1
al_s_place,37.748924,-122.42013,san_francisco,california,californian,2,https://guide.michelin.com/us/en/california/san-francisco/restaurant/al-s-place,1
aster,37.755054,-122.423134,san_francisco,california,californian,3,https://guide.michelin.com/us/en/california/san-francisco/restaurant/aster,1
omakase,37.77077,-122.40298,san_francisco,california,japanese,4,https://guide.michelin.com/us/en/california/san-francisco/restaurant/omakase,1
commonwealth,37.761395,-122.41946000000002,san_francisco,california,contemporary,2,https://guide.michelin.com/us/en/california/san-francisco/restaurant/commonwealth,1
luce,37.781940000000006,-122.40498,san_francisco,california,contemporary,3,https://guide.michelin.com/us/en/california/san-francisco/restaurant/luce,1
birdsong,37.779495,-122.41048,san_francisco,california,american,4,https://guide.michelin.com/us/en/california/san-francisco/restaurant/birdsong,1
in_situ,37.785633,-122.40113,san_francisco,california,international,4,https://guide.michelin.com/us/en/california/san-francisco/restaurant/in-situ,1
mourad,37.78695,-122.39987,san_francisco,california,moroccan,3,https://guide.michelin.com/us/en/california/san-francisco/restaurant/mourad,1
hashiri,37.783062,-122.40754,san_francisco,california,japanese,4,https://guide.michelin.com/us/en/california/san-francisco/restaurant/hashiri,1
angler,37.793167,-122.39213,san_francisco,california,contemporary,4,https://guide.michelin.com/us/en/california/san-francisco/restaurant/angler,1
rich_table,37.774914,-122.42271,san_francisco,california,contemporary,3,https://guide.michelin.com/us/en/california/san-francisco/restaurant/rich-table,1
kin_khao,37.785267,-122.40951,san_francisco,california,thai,2,https://guide.michelin.com/us/en/california/san-francisco/restaurant/kin-khao,1
michael_mina,37.793490000000006,-122.399574,san_francisco,california,contemporary,4,https://guide.michelin.com/us/en/california/san-francisco/restaurant/michael-mina,1
sons_daughters,37.79037,-122.40917,san_francisco,california,contemporary,4,https://guide.michelin.com/us/en/california/san-francisco/restaurant/sons-daughters,1
mister_jiu_s,37.79371,-122.406654,san_francisco,california,chinese,3,https://guide.michelin.com/us/en/california/san-francisco/restaurant/mister-jius,1
nico,37.795803,-122.40333,san_francisco,california,contemporary,3,https://guide.michelin.com/us/en/california/san-francisco/restaurant/nico,1
ju_ni,37.776720000000005,-122.43886,san_francisco,california,japanese,4,https://guide.michelin.com/us/en/california/san-francisco/restaurant/ju-ni,1
keiko_a_nob_hill,37.793106,-122.41445,san_francisco,california,fusion,4,https://guide.michelin.com/us/en/california/san-francisco/restaurant/keiko-a-nob-hill,1
the_progress,37.78371,-122.43282,san_francisco,california,californian,3,https://guide.michelin.com/us/en/california/san-francisco/restaurant/the-progress,1
state_bird_provisions,37.783737,-122.43283,san_francisco,california,american,2,https://guide.michelin.com/us/en/california/san-francisco/restaurant/state-bird-provisions,1
octavia,37.787857,-122.42709,san_francisco,california,californian,3,https://guide.michelin.com/us/en/california/san-francisco/restaurant/octavia,1
spqr,37.78732,-122.43375,san_francisco,california,italian,3,https://guide.michelin.com/us/en/california/san-francisco/restaurant/spqr,1
lord_stanley,37.79592,-122.42208,san_francisco,california,californian,3,https://guide.michelin.com/us/en/california/san-francisco/restaurant/lord-stanley,1
kinjo,37.79699,-122.422005,san_francisco,california,japanese,4,https://guide.michelin.com/us/en/california/san-francisco/restaurant/kinjo,1
sorrel,37.788334000000006,-122.44614,san_francisco,california,californian,3,https://guide.michelin.com/us/en/california/san-francisco/restaurant/sorrel,1
gary_danko,37.80599,-122.42066,san_francisco,california,contemporary,4,https://guide.michelin.com/us/en/california/san-francisco/restaurant/gary-danko,1
bar_crenn,37.798435,-122.43581,san_francisco,california,french,3,https://guide.michelin.com/us/en/california/san-francisco/restaurant/bar-crenn,1
spruce,37.78772,-122.45264,san_francisco,california,californian,3,https://guide.michelin.com/us/en/california/san-francisco/restaurant/spruce,1
wako,37.783035,-122.461525,san_francisco,california,japanese,4,https://guide.michelin.com/us/en/california/san-francisco/restaurant/wako,1
madcap,37.974712,-122.56168,san_francisco,california,contemporary,4,https://guide.michelin.com/us/en/california/san-francisco/restaurant/madcap,1
aubergine,36.55406,-121.924355,monterey,california,contemporary,4,https://guide.michelin.com/us/en/california/monterey/restaurant/aubergine,1
kenzo,38.299240000000005,-122.28928,san_francisco,california,japanese,4,https://guide.michelin.com/us/en/california/san-francisco/restaurant/kenzo,1
la_toque,38.30351,-122.28349,san_francisco,california,contemporary,4,https://guide.michelin.com/us/en/california/san-francisco/restaurant/la-toque,1
bouchon,38.40258,-122.3619,san_francisco,california,french,3,https://guide.michelin.com/us/en/california/san-francisco/restaurant/bouchon,1
auberge_du_soleil,38.49199,-122.40534,san_francisco,california,californian,4,https://guide.michelin.com/us/en/california/san-francisco/restaurant/auberge-du-soleil,1
farmhouse_inn_restaurant,38.490390000000005,-122.8835,san_francisco,california,californian,4,https://guide.michelin.com/us/en/california/san-francisco/restaurant/farmhouse-inn-restaurant,1
the_kitchen,38.58894,-121.41424,sacramento,california,contemporary,4,https://guide.michelin.com/us/en/california/us-sacramento/restaurant/the-kitchen559371,1
madrona_manor,38.60428,-122.88647,san_francisco,california,contemporary,4,https://guide.michelin.com/us/en/california/san-francisco/restaurant/madrona-manor,1
harbor_house,39.135876,-123.719444,san_francisco,california,californian,4,https://guide.michelin.com/us/en/california/san-francisco/restaurant/harbor-house,1
shin_sushi,34.15784,-118.49415,los_angeles,california,japanese,3,https://guide.michelin.com/us/en/california/us-los-angeles/restaurant/shin-sushi,1
rustic_canyon,34.024952,-118.49118,los_angeles,california,californian,3,https://guide.michelin.com/us/en/california/us-los-angeles/restaurant/rustic-canyon,1
dialogue,34.01679,-118.49748,los_angeles,california,contemporary,4,https://guide.michelin.com/us/en/california/us-los-angeles/restaurant/dialogue,1
kato,34.041683,-118.460915,los_angeles,california,asian,3,https://guide.michelin.com/us/en/california/us-los-angeles/restaurant/kato,1
cut,34.067036,-118.401024,los_angeles,california,steakhouse,4,https://guide.michelin.com/us/en/california/us-los-angeles/restaurant/cut559418,1
nozawa_bar,34.0683,-118.39849,los_angeles,california,japanese,4,https://guide.michelin.com/us/en/california/us-los-angeles/restaurant/nozawa-bar,1
shunji,34.028496000000004,-118.45195,los_angeles,california,japanese,4,https://guide.michelin.com/us/en/california/us-los-angeles/restaurant/shunji,1
maude,34.064346,-118.39904,los_angeles,california,contemporary,4,https://guide.michelin.com/us/en/california/us-los-angeles/restaurant/maude,1
mori_sushi,34.033398,-118.44229,los_angeles,california,japanese,4,https://guide.michelin.com/us/en/california/us-los-angeles/restaurant/mori-sushi,1
trois_mec,34.084255,-118.33851,los_angeles,california,contemporary,4,https://guide.michelin.com/us/en/california/us-los-angeles/restaurant/trois-mec,1
osteria_mozza,34.083420000000004,-118.338974,los_angeles,california,italian,3,https://guide.michelin.com/us/en/california/us-los-angeles/restaurant/osteria-mozza,1
kali,34.083443,-118.32455,los_angeles,california,californian,3,https://guide.michelin.com/us/en/california/us-los-angeles/restaurant/kali,1
le_comptoir,34.06354,-118.30057,los_angeles,california,californian,4,https://guide.michelin.com/us/en/california/us-los-angeles/restaurant/le-comptoir,1
q_sushi,34.046883,-118.255844,los_angeles,california,japanese,4,https://guide.michelin.com/us/en/california/us-los-angeles/restaurant/q-sushi,1
shibumi,34.044155,-118.256134,los_angeles,california,japanese,4,https://guide.michelin.com/us/en/california/us-los-angeles/restaurant/shibumi559644,1
hayato,34.03311,-118.24265,los_angeles,california,japanese,4,https://guide.michelin.com/us/en/california/us-los-angeles/restaurant/hayato,1
bistro_na_s,34.104412,-118.07159,los_angeles,california,chinese,2,https://guide.michelin.com/us/en/california/us-los-angeles/restaurant/bistro-na-s,1
orsa_winston,33.92145,-118.275406,los_angeles,california,fusion,4,https://guide.michelin.com/us/en/california/us-los-angeles/restaurant/orsa-winston,1
taco_maria,33.69475,-117.924965,costa_mesa,california,mexican,3,https://guide.michelin.com/us/en/california/us-costa-mesa/restaurant/taco-maria,1
hana_re,33.67759,-117.886566,costa_mesa,california,japanese,4,https://guide.michelin.com/us/en/california/us-costa-mesa/restaurant/hana-re,1
addison,32.939903,-117.20013,san_diego,california,contemporary,4,https://guide.michelin.com/us/en/california/us-san-diego/restaurant/addison,1
parachute,41.94483,-87.70638000000001,chicago,chicago,fusion,2,https://guide.michelin.com/us/en/illinois/chicago/restaurant/parachute,1
goosefoot,41.96856,-87.69596,chicago,chicago,contemporary,4,https://guide.michelin.com/us/en/illinois/chicago/restaurant/goosefoot,1
elizabeth,41.969555,-87.68873599999999,chicago,chicago,contemporary,4,https://guide.michelin.com/us/en/illinois/chicago/restaurant/elizabeth,1
el_ideas,41.863,-87.68686,chicago,chicago,contemporary,4,https://guide.michelin.com/us/en/illinois/chicago/restaurant/el-ideas,1
band_of_bohemia,41.967308,-87.67477,chicago,chicago,gastropub,3,https://guide.michelin.com/us/en/illinois/chicago/restaurant/band-of-bohemia,1
schwa,41.90888,-87.66792,chicago,chicago,contemporary,4,https://guide.michelin.com/us/en/illinois/chicago/restaurant/schwa,1
temporis,41.898907,-87.66725,chicago,chicago,contemporary,4,https://guide.michelin.com/us/en/illinois/chicago/restaurant/temporis,1
entente,41.93721,-87.6652,chicago,chicago,contemporary,3,https://guide.michelin.com/us/en/illinois/chicago/restaurant/entente,1
elske,41.884426,-87.66071,chicago,chicago,contemporary,4,https://guide.michelin.com/us/en/illinois/chicago/restaurant/elske,1
dusek_s_board_beer_,41.857853000000006,-87.65756999999999,chicago,chicago,gastropub,2,https://guide.michelin.com/us/en/illinois/chicago/restaurant/dusek-s-board-beer,1
roister,41.886658,-87.65187,chicago,chicago,contemporary,3,https://guide.michelin.com/us/en/illinois/chicago/restaurant/roister,1
boka,41.91363,-87.64806,chicago,chicago,contemporary,3,https://guide.michelin.com/us/en/illinois/chicago/restaurant/boka,1
blackbird,41.88423,-87.64356,chicago,chicago,contemporary,3,https://guide.michelin.com/us/en/illinois/chicago/restaurant/blackbird,1
sepia,41.88394,-87.64246999999999,chicago,chicago,american,3,https://guide.michelin.com/us/en/illinois/chicago/restaurant/sepia,1
north_pond,41.9296,-87.63762,chicago,chicago,contemporary,3,https://guide.michelin.com/us/en/illinois/chicago/restaurant/north-pond,1
everest,41.87597,-87.63212,chicago,chicago,french,4,https://guide.michelin.com/us/en/illinois/chicago/restaurant/everest,1
topolobampo,41.89047,-87.63085,chicago,chicago,mexican,4,https://guide.michelin.com/us/en/illinois/chicago/restaurant/topolobampo,1
spiaggia,41.90062,-87.62456999999999,chicago,chicago,italian,4,https://guide.michelin.com/us/en/illinois/chicago/restaurant/spiaggia,1
monte,45.08279,13.631168,rovinj,croatia,creative,5,https://guide.michelin.com/hr/en/istria/rovinj/restaurant/monte,1
draga_di_lovrana,45.275867,14.251401,lovran,croatia,modern,5,https://guide.michelin.com/hr/en/primorje-gorski-kotar/lovran/restaurant/draga-di-lovrana,1
noel,45.811054,15.988205,zagreb,croatia,modern,5,https://guide.michelin.com/hr/en/zagreb-region/zagreb/restaurant/noel,1
pelegrini,43.73603,15.888903,sibenik,croatia,modern,5,https://guide.michelin.com/hr/en/sibenik-knin/sibenik/restaurant/pelegrini,1
three_hundred_sixty_degrees,42.641563,18.111523,dubrovnik,croatia,modern,5,https://guide.michelin.com/hr/en/dubrovnik-neretva/dubrovnik/restaurant/360%C2%BA,1
field,50.0919,14.42193,praha,czech_republic,modern,5,https://guide.michelin.com/cz/en/prague/praha/restaurant/field,1
la_degustation_boheme_bourgeoise,50.09115,14.42511,praha,czech_republic,modern,5,https://guide.michelin.com/cz/en/prague/praha/restaurant/la-degustation-boheme-bourgeoise,1
gastrome,56.157880000000006,10.20937,aarhus,denmark,modern,3,https://guide.michelin.com/dk/en/central-denmark/aarhus/restaurant/gastrome,1
domestic,56.158930000000005,10.212132,aarhus,denmark,modern,3,https://guide.michelin.com/dk/en/central-denmark/aarhus/restaurant/domestic,1
substans,56.15415,10.20372,aarhus,denmark,modern,3,https://guide.michelin.com/dk/en/central-denmark/aarhus/restaurant/substans,1
frederikshj,56.12497,10.208638,aarhus,denmark,creative,4,https://guide.michelin.com/dk/en/central-denmark/aarhus/restaurant/frederikshoj,1
memu,55.70901,9.53302,vejle,denmark,modern,3,https://guide.michelin.com/dk/en/vejle/restaurant/me%E2%80%9Amu,1
ti_trin_ned,55.566590000000005,9.752689,fredericia,denmark,modern,3,https://guide.michelin.com/dk/en/southern-denmark/fredericia/restaurant/ti-trin-ned,1
slotskkkenet,55.771236,11.390805,hrve,denmark,creative,4,https://guide.michelin.com/dk/en/zealand/horve/restaurant/slotskokkenet,1
sllerd_kro,55.81325,12.49548,kbenhavn,denmark,modern,2,https://guide.michelin.com/dk/en/capital-region/kobenhavn/restaurant/sollerod-kro,1
jordnr,55.748226,12.541014,kbenhavn,denmark,danish,3,https://guide.michelin.com/dk/en/capital-region/kobenhavn/restaurant/jordnaer,1
rel,55.693233,12.543222,kbenhavn,denmark,modern,2,https://guide.michelin.com/dk/en/capital-region/kobenhavn/restaurant/relae,1
kiin_kiin,55.691880000000005,12.55754,kbenhavn,denmark,thai,2,https://guide.michelin.com/dk/en/capital-region/kobenhavn/restaurant/kiin-kiin,1
formel_b,55.67031,12.53798,kbenhavn,denmark,modern,2,https://guide.michelin.com/dk/en/capital-region/kobenhavn/restaurant/formel-b,1
kokkeriet,55.68768000000001,12.58492,kbenhavn,denmark,modern,3,https://guide.michelin.com/dk/en/capital-region/kobenhavn/restaurant/kokkeriet,1
clou,55.68342,12.58497,kbenhavn,denmark,modern,4,https://guide.michelin.com/dk/en/capital-region/kobenhavn/restaurant/clou,1
marchal,55.68034,12.58508,kbenhavn,denmark,modern,2,https://guide.michelin.com/dk/en/capital-region/kobenhavn/restaurant/marchal,1
kong_hans_klder,55.6787,12.584003,kbenhavn,denmark,french,4,https://guide.michelin.com/dk/en/capital-region/kobenhavn/restaurant/kong-hans-kaelder,1
stud_o_at_the_standard,55.67799,12.59191,kbenhavn,denmark,creative,3,https://guide.michelin.com/dk/en/capital-region/kobenhavn/restaurant/stud-o-at-the-standard,1
108,55.67785,12.5980835,kbenhavn,denmark,modern,3,https://guide.michelin.com/dk/en/capital-region/kobenhavn/restaurant/108,1
era_ora,55.673004000000006,12.591292,kbenhavn,denmark,italian,2,https://guide.michelin.com/dk/en/capital-region/kobenhavn/restaurant/era-ora,1
alouette,55.66265,12.57634,kbenhavn,denmark,modern,3,https://guide.michelin.com/dk/en/capital-region/kobenhavn/restaurant/alouette,1
frederiksminde,55.12416999999999,12.04623,prst,denmark,creative,3,https://guide.michelin.com/dk/en/zealand/praesto/restaurant/frederiksminde,1
kadeau_bornholm,55.00457,14.969216,pedersker,denmark,creative,4,https://guide.michelin.com/dk/en/capital-region/pedersker/restaurant/kadeau-bornholm,1
ask,60.17236,24.95648,helsinki,finland,modern,3,https://guide.michelin.com/fi/en/uusimaa/helsingfors-helsinki/restaurant/ask,1
gron,60.16446,24.93308,helsinki,finland,finnish,3,https://guide.michelin.com/fi/en/uusimaa/helsingfors-helsinki/restaurant/gron,1
demo,60.164806000000006,24.941635,helsinki,finland,modern,3,https://guide.michelin.com/fi/en/uusimaa/helsingfors-helsinki/restaurant/demo,1
olo,60.16616,24.947704,helsinki,finland,modern,3,https://guide.michelin.com/fi/en/uusimaa/helsingfors-helsinki/restaurant/olo,1
palace,60.16556,24.95256,helsinki,finland,modern,3,https://guide.michelin.com/fi/en/uusimaa/helsingfors-helsinki/restaurant/palace,1
ora,60.157578,24.942947,helsinki,finland,modern,3,https://guide.michelin.com/fi/en/uusimaa/helsingfors-helsinki/restaurant/ora,1
botrini_s,38.02318,23.79377,athina,greece,mediterranean,5,https://guide.michelin.com/gr/en/attica/athina/restaurant/botrini-s,1
varoulko_seaside,37.937378,23.658577,athina,greece,seafood,5,https://guide.michelin.com/gr/en/attica/athina/restaurant/varoulko-seaside,1
hytra,37.95818,23.71895,athina,greece,modern,5,https://guide.michelin.com/gr/en/attica/athina/restaurant/hytra,1
loaf_on,22.379858,114.27188,hong_kong,hong_kong,cantonese,2,https://guide.michelin.com/hk/en/hong-kong-region/hong-kong/restaurant/loaf-on,1
lei_garden_kwun_tong_,22.312672,114.22482,hong_kong,hong_kong,cantonese,1,https://guide.michelin.com/hk/en/hong-kong-region/hong-kong/restaurant/lei-garden-kwun-tong,1
tim_ho_wan_sham_shui_po_,22.32805,114.16665,hong_kong,hong_kong,dim_sum,1,https://guide.michelin.com/hk/en/hong-kong-region/hong-kong/restaurant/tim-ho-wan-sham-shui-po,1
lei_garden_mong_kok_,22.320219,114.17133,hong_kong,hong_kong,cantonese,1,https://guide.michelin.com/hk/en/hong-kong-region/hong-kong/restaurant/lei-garden-mong-kok,1
ming_court,22.318314,114.16933,hong_kong,hong_kong,cantonese,3,https://guide.michelin.com/hk/en/hong-kong-region/hong-kong/restaurant/ming-court,1
yat_tung_heen_jordan_,22.308014,114.17147,hong_kong,hong_kong,cantonese,2,https://guide.michelin.com/hk/en/hong-kong-region/hong-kong/restaurant/yat-tung-heen-jordan,1
fu_ho_tsim_sha_tsui_,22.3022,114.17194,hong_kong,hong_kong,cantonese,2,https://guide.michelin.com/hk/en/hong-kong-region/hong-kong/restaurant/fu-ho-tsim-sha-tsui,1
shang_palace,22.297325,114.177155,hong_kong,hong_kong,cantonese,3,https://guide.michelin.com/hk/en/hong-kong-region/hong-kong/restaurant/shang-palace,1
im_teppanyaki_wine,22.280807,114.19211,hong_kong,hong_kong,teppanyaki,2,https://guide.michelin.com/hk/en/hong-kong-region/hong-kong/restaurant/im-teppanyaki-wine,1
ah_yat_harbour_view_tsim_sha_tsui_,22.296984,114.17197,hong_kong,hong_kong,cantonese,2,https://guide.michelin.com/hk/en/hong-kong-region/hong-kong/restaurant/ah-yat-harbour-view-tsim-sha-tsui,1
rech,22.293434,114.174034,hong_kong,hong_kong,seafood,4,https://guide.michelin.com/hk/en/hong-kong-region/hong-kong/restaurant/rech,1
spring_moon,22.294943,114.17182,hong_kong,hong_kong,cantonese,3,https://guide.michelin.com/hk/en/hong-kong-region/hong-kong/restaurant/spring-moon,1
imperial_treasure_fine_chinese_cuisine,22.296177,114.170006,hong_kong,hong_kong,cantonese,2,https://guide.michelin.com/hk/en/hong-kong-region/hong-kong/restaurant/imperial-treasure-fine-chinese-cuisine,1
sushi_tokami,22.296112,114.16916,hong_kong,hong_kong,sushi,5,https://guide.michelin.com/hk/en/hong-kong-region/hong-kong/restaurant/sushi-tokami,1
tosca,22.30357,114.16007,hong_kong,hong_kong,italian,3,https://guide.michelin.com/hk/en/hong-kong-region/hong-kong/restaurant/tosca352519,1
epure,22.29583,114.169304,hong_kong,hong_kong,french,3,https://guide.michelin.com/hk/en/hong-kong-region/hong-kong/restaurant/epure,1
yee_tung_heen,22.282295,114.184135,hong_kong,hong_kong,cantonese,2,https://guide.michelin.com/hk/en/hong-kong-region/hong-kong/restaurant/yee-tung-heen,1
ye_shanghai_tsim_sha_tsui_,22.295143,114.168236,hong_kong,hong_kong,shanghainese,1,https://guide.michelin.com/hk/en/hong-kong-region/hong-kong/restaurant/ye-shanghai-tsim-sha-tsui,1
ho_hung_kee,22.280058,114.18364,hong_kong,hong_kong,noodles,1,https://guide.michelin.com/hk/en/hong-kong-region/hong-kong/restaurant/ho-hung-kee,1
jardin_de_jade_wan_chai_,22.28025,114.17716,hong_kong,hong_kong,shanghainese,2,https://guide.michelin.com/hk/en/hong-kong-region/hong-kong/restaurant/jardin-de-jade-wan-chai,1
zhejiang_heen,22.2787,114.17763,hong_kong,hong_kong,shanghainese,2,https://guide.michelin.com/hk/en/hong-kong-region/hong-kong/restaurant/zhejiang-heen,1
takumi_by_daisuke_mori,22.276512,114.17718,hong_kong,hong_kong,innovative,5,https://guide.michelin.com/hk/en/hong-kong-region/hong-kong/restaurant/takumi-by-daisuke-mori,1
kam_s_roast_goose,22.277693,114.175385,hong_kong,hong_kong,cantonese,1,https://guide.michelin.com/hk/en/hong-kong-region/hong-kong/restaurant/kam-s-roast-goose,1
pang_s_kitchen,22.26921,114.18452,hong_kong,hong_kong,cantonese,1,https://guide.michelin.com/hk/en/hong-kong-region/hong-kong/restaurant/pang-s-kitchen,1
xin_rong_ji,22.278013,114.17273,hong_kong,hong_kong,taizhou,3,https://guide.michelin.com/hk/en/hong-kong-region/hong-kong/restaurant/xin-rong-ji,1
qi_wan_chai_,22.276443,114.17126,hong_kong,hong_kong,sichuan,1,https://guide.michelin.com/hk/en/hong-kong-region/hong-kong/restaurant/qi-wan-chai,1
man_wah,22.282213,114.15951,hong_kong,hong_kong,cantonese,4,https://guide.michelin.com/hk/en/hong-kong-region/hong-kong/restaurant/man-wah,1
summer_palace,22.277136,114.1643,hong_kong,hong_kong,cantonese,3,https://guide.michelin.com/hk/en/hong-kong-region/hong-kong/restaurant/summer-palace,1
octavium,22.282587,114.1572,hong_kong,hong_kong,italian,3,https://guide.michelin.com/hk/en/hong-kong-region/hong-kong/restaurant/octavium,1
arbor,22.283146,114.15542,hong_kong,hong_kong,innovative,3,https://guide.michelin.com/hk/en/hong-kong-region/hong-kong/restaurant/arbor,1
vea,22.284931,114.15313,hong_kong,hong_kong,innovative,5,https://guide.michelin.com/hk/en/hong-kong-region/hong-kong/restaurant/vea,1
mandarin_grill_bar,22.281048,114.1574,hong_kong,hong_kong,european,4,https://guide.michelin.com/hk/en/hong-kong-region/hong-kong/restaurant/mandarin-grill-bar,1
yat_lok,22.28226,114.155655,hong_kong,hong_kong,cantonese,1,https://guide.michelin.com/hk/en/hong-kong-region/hong-kong/restaurant/yat-lok,1
guo_fu_lou,22.278313,114.16034,hong_kong,hong_kong,cantonese,3,https://guide.michelin.com/hk/en/hong-kong-region/hong-kong/restaurant/guo-fu-lou567828,1
celebrity_cuisine,22.284334,114.15312,hong_kong,hong_kong,cantonese,2,https://guide.michelin.com/hk/en/hong-kong-region/hong-kong/restaurant/celebrity-cuisine,1
sushi_wadatsumi,22.281038,114.15646,hong_kong,hong_kong,sushi,3,https://guide.michelin.com/hk/en/hong-kong-region/hong-kong/restaurant/sushi-wadatsumi,1
arcane,22.280624,114.15682,hong_kong,hong_kong,european,3,https://guide.michelin.com/hk/en/hong-kong-region/hong-kong/restaurant/arcane,1
duddell_s,22.28008,114.157364,hong_kong,hong_kong,cantonese,3,https://guide.michelin.com/hk/en/hong-kong-region/hong-kong/restaurant/duddell-s,1
beefbar,22.27982,114.15752,hong_kong,hong_kong,steakhouse,2,https://guide.michelin.com/hk/en/hong-kong-region/hong-kong/restaurant/beefbar,1
new_punjab_club,22.28005,114.15525,hong_kong,hong_kong,indian,2,https://guide.michelin.com/hk/en/hong-kong-region/hong-kong/restaurant/new-punjab-club,1
kaiseki_den_by_saotome,22.285713,114.147865,hong_kong,hong_kong,japanese,5,https://guide.michelin.com/hk/en/hong-kong-region/hong-kong/restaurant/kaiseki-den-by-saotome,1
belon,22.281662,114.152405,hong_kong,hong_kong,french,3,https://guide.michelin.com/hk/en/hong-kong-region/hong-kong/restaurant/belon,1
tate,22.280996,114.15276,hong_kong,hong_kong,innovative,5,https://guide.michelin.com/hk/en/hong-kong-region/hong-kong/restaurant/tate,1
the_ocean,22.235146,114.198524,hong_kong,hong_kong,french,5,https://guide.michelin.com/hk/en/hong-kong-region/hong-kong/restaurant/the-ocean,1
costes_downtown,47.50113,19.048595,budapest,hungary,modern,4,https://guide.michelin.com/hu/en/central-hungary/budapest/restaurant/costes-downtown,1
borkonyha_winekitchen,47.49953,19.052391,budapest,hungary,modern,4,https://guide.michelin.com/hu/en/central-hungary/budapest/restaurant/borkonyha-winekitchen,1
stand,47.500244,19.059624,budapest,hungary,modern,3,https://guide.michelin.com/hu/en/central-hungary/budapest/restaurant/stand,1
babel,47.492603,19.05256,budapest,hungary,modern,5,https://guide.michelin.com/hu/en/central-hungary/budapest/restaurant/babel,1
costes,47.48873,19.061779,budapest,hungary,modern,5,https://guide.michelin.com/hu/en/central-hungary/budapest/restaurant/costes,1
the_kitchen,22.191442,113.543,macau,macau,steakhouse,3,https://guide.michelin.com/mo/en/macau-region/macau/restaurant/the-kitchen417810,1
tim_s_kitchen,22.189898,113.5439,macau,macau,cantonese,2,https://guide.michelin.com/mo/en/macau-region/macau/restaurant/tim-s-kitchen,1
wing_lei,22.188028,113.54578,macau,macau,cantonese,2,https://guide.michelin.com/mo/en/macau-region/macau/restaurant/wing-lei,1
king,22.190178,113.54028,macau,macau,cantonese,1,https://guide.michelin.com/mo/en/macau-region/macau/restaurant/king380226,1
ying,22.161234,113.555405,macau,macau,cantonese,2,https://guide.michelin.com/mo/en/macau-region/macau/restaurant/ying,1
shinji_by_kanesaka,22.149635,113.56397,macau,macau,sushi,4,https://guide.michelin.com/mo/en/macau-region/macau/restaurant/shinji-by-kanesaka,1
the_golden_peacock,22.148178,113.56335,macau,macau,indian,1,https://guide.michelin.com/mo/en/macau-region/macau/restaurant/the-golden-peacock,1
zi_yat_heen,22.145418,113.56152,macau,macau,cantonese,2,https://guide.michelin.com/mo/en/macau-region/macau/restaurant/zi-yat-heen,1
otto_e_mezzo_bombana,22.14918,113.55393,macau,macau,italian,3,https://guide.michelin.com/mo/en/macau-region/macau/restaurant/8-1-2-otto-e-mezzo-bombana,1
pearl_dragon,22.140524,113.56256,macau,macau,cantonese,3,https://guide.michelin.com/mo/en/macau-region/macau/restaurant/pearl-dragon,1
lai_heen,22.148754,113.551926,macau,macau,cantonese,2,https://guide.michelin.com/mo/en/macau-region/macau/restaurant/lai-heen,1
fagn,63.43391999999999,10.39628,trondheim,norway,modern,4,https://guide.michelin.com/no/en/trondelag/trondheim/restaurant/fagn,1
credo,63.43391,10.39631,trondheim,norway,creative,4,https://guide.michelin.com/no/en/trondelag/trondheim/restaurant/credo,1
re_naa,58.972088,5.732876999999999,stavanger,norway,creative,4,https://guide.michelin.com/no/en/rogaland/stavanger/restaurant/re-naa,1
sabi_omakase,58.969936,5.7433133000000005,stavanger,norway,sushi,4,https://guide.michelin.com/no/en/rogaland/stavanger/restaurant/sabi-omakase,1
galt,59.91661,10.71369,oslo,norway,modern,3,https://guide.michelin.com/no/en/oslo-region/oslo/restaurant/galt,1
kontrast,59.92355,10.75106,oslo,norway,scandinavian,3,https://guide.michelin.com/no/en/oslo-region/oslo/restaurant/kontrast,1
statholdergaarden,59.90937,10.74305,oslo,norway,classic,4,https://guide.michelin.com/no/en/oslo-region/oslo/restaurant/statholdergaarden,1
del_posto,40.74327,-74.0077,new_york,new_york_city,italian,4,https://guide.michelin.com/us/en/new-york-state/new-york/restaurant/del-posto,1
le_grill_de_joel_robuchon,40.742897,-74.0077,new_york,new_york_city,french,4,https://guide.michelin.com/us/en/new-york-state/new-york/restaurant/le-grill-de-joel-robuchon,1
l_appart,40.711903,-74.01544,new_york,new_york_city,french,4,https://guide.michelin.com/us/en/new-york-state/new-york/restaurant/l-appart,1
okuda,40.743793,-74.00633,new_york,new_york_city,japanese,4,https://guide.michelin.com/us/en/new-york-state/new-york/restaurant/okuda,1
wallse,40.73538,-74.00814,new_york,new_york_city,austrian,4,https://guide.michelin.com/us/en/new-york-state/new-york/restaurant/wallse,1
jeju_noodle_bar,40.732952,-74.00744,new_york,new_york_city,korean,2,https://guide.michelin.com/us/en/new-york-state/new-york/restaurant/jeju-noodle-bar,1
sushi_nakazawa,40.731716,-74.00451,new_york,new_york_city,japanese,4,https://guide.michelin.com/us/en/new-york-state/new-york/restaurant/sushi-nakazawa,1
kosaka,40.738316,-74.00137,new_york,new_york_city,japanese,4,https://guide.michelin.com/us/en/new-york-state/new-york/restaurant/kosaka,1
batard,40.719616,-74.00589000000001,new_york,new_york_city,contemporary,4,https://guide.michelin.com/us/en/new-york-state/new-york/restaurant/batard,1
hirohisa,40.72452,-74.003006,new_york,new_york_city,japanese,3,https://guide.michelin.com/us/en/new-york-state/new-york/restaurant/hirohisa,1
blue_hill,40.7321,-73.9996,new_york,new_york_city,american,4,https://guide.michelin.com/us/en/new-york-state/new-york/restaurant/blue-hill,1
zz_s_clam_bar,40.727646,-74.00046,new_york,new_york_city,seafood,4,https://guide.michelin.com/us/en/new-york-state/new-york/restaurant/zz-s-clam-bar,1
babbo,40.73233,-73.99916,new_york,new_york_city,italian,4,https://guide.michelin.com/us/en/new-york-state/new-york/restaurant/babbo,1
carbone,40.727966,-74.00017,new_york,new_york_city,italian,4,https://guide.michelin.com/us/en/new-york-state/new-york/restaurant/carbone,1
le_coucou,40.719162,-74.00001,new_york,new_york_city,french,3,https://guide.michelin.com/us/en/new-york-state/new-york/restaurant/le-coucou,1
aldea,40.73885,-73.99365999999999,new_york,new_york_city,mediterranean,4,https://guide.michelin.com/us/en/new-york-state/new-york/restaurant/aldea,1
cote,40.73778,-73.99375,new_york,new_york_city,korean,3,https://guide.michelin.com/us/en/new-york-state/new-york/restaurant/cote,1
bouley_at_home,40.74114,-73.99242,new_york,new_york_city,contemporary,3,https://guide.michelin.com/us/en/new-york-state/new-york/restaurant/bouley-at-home,1
gotham_bar_and_grill,40.73417,-73.99379,new_york,new_york_city,american,4,https://guide.michelin.com/us/en/new-york-state/new-york/restaurant/gotham-bar-and-grill,1
nix,40.733166,-73.993515,new_york,new_york_city,vegetarian,3,https://guide.michelin.com/us/en/new-york-state/new-york/restaurant/nix,1
junoon,40.74325,-73.99077,new_york,new_york_city,indian,4,https://guide.michelin.com/us/en/new-york-state/new-york/restaurant/junoon,1
nomad,40.74497,-73.98883000000001,new_york,new_york_city,contemporary,4,https://guide.michelin.com/us/en/new-york-state/new-york/restaurant/nomad,1
the_musket_room,40.723915000000005,-73.99375,new_york,new_york_city,contemporary,3,https://guide.michelin.com/us/en/new-york-state/new-york/restaurant/the-musket-room,1
uncle_boons,40.721203,-73.99441,new_york,new_york_city,thai,2,https://guide.michelin.com/us/en/new-york-state/new-york/restaurant/uncle-boons,1
noda,40.74497,-73.988075,new_york,new_york_city,japanese,4,https://guide.michelin.com/us/en/new-york-state/new-york/restaurant/noda,1
gramercy_tavern,40.738490000000006,-73.98868,new_york,new_york_city,contemporary,4,https://guide.michelin.com/us/en/new-york-state/new-york/restaurant/gramercy-tavern,1
the_clocktower,40.7414,-73.987595,new_york,new_york_city,contemporary,3,https://guide.michelin.com/us/en/new-york-state/new-york/restaurant/the-clocktower,1
ai_fiori,40.75013,-73.98357,new_york,new_york_city,italian,4,https://guide.michelin.com/us/en/new-york-state/new-york/restaurant/ai-fiori,1
casa_mono,40.73595,-73.98706,new_york,new_york_city,spanish,3,https://guide.michelin.com/us/en/new-york-state/new-york/restaurant/casa-mono,1
jewel_bako,40.72713,-73.98928000000001,new_york,new_york_city,japanese,3,https://guide.michelin.com/us/en/new-york-state/new-york/restaurant/jewel-bako,1
the_river_cafe,40.703613,-73.99477399999999,new_york,new_york_city,contemporary,4,https://guide.michelin.com/us/en/new-york-state/new-york/restaurant/the-river-cafe,1
bar_uchu,40.72191,-73.99003,new_york,new_york_city,japanese,4,https://guide.michelin.com/us/en/new-york-state/new-york/restaurant/bar-uchu,1
cafe_china,40.749973,-73.98228,new_york,new_york_city,chinese,2,https://guide.michelin.com/us/en/new-york-state/new-york/restaurant/cafe-china,1
kanoyama,40.73071,-73.98655,new_york,new_york_city,japanese,3,https://guide.michelin.com/us/en/new-york-state/new-york/restaurant/kanoyama,1
contra,40.719917,-73.98921999999999,new_york,new_york_city,contemporary,4,https://guide.michelin.com/us/en/new-york-state/new-york/restaurant/contra,1
atomix,40.744408,-73.98292,new_york,new_york_city,korean,4,https://guide.michelin.com/us/en/new-york-state/new-york/restaurant/atomix,1
kyo_ya,40.7266,-73.98526,new_york,new_york_city,japanese,3,https://guide.michelin.com/us/en/new-york-state/new-york/restaurant/kyo-ya,1
kajitsu,40.72776,-73.98428,new_york,new_york_city,japanese,3,https://guide.michelin.com/us/en/new-york-state/new-york/restaurant/kajitsu,1
agern,40.75234,-73.9775,new_york,new_york_city,scandinavian,4,https://guide.michelin.com/us/en/new-york-state/new-york/restaurant/agern,1
caviar_russe,40.760685,-73.97355,new_york,new_york_city,contemporary,4,https://guide.michelin.com/us/en/new-york-state/new-york/restaurant/caviar-russe,1
tuome,40.724194,-73.9828,new_york,new_york_city,fusion,2,https://guide.michelin.com/us/en/new-york-state/new-york/restaurant/tuome,1
tempura_matsui,40.74839,-73.97474,new_york,new_york_city,japanese,4,https://guide.michelin.com/us/en/new-york-state/new-york/restaurant/tempura-matsui,1
sushi_yasuda,40.75108,-73.97364,new_york,new_york_city,japanese,4,https://guide.michelin.com/us/en/new-york-state/new-york/restaurant/sushi-yasuda,1
sushi_amane,40.75133,-73.971725,new_york,new_york_city,japanese,4,https://guide.michelin.com/us/en/new-york-state/new-york/restaurant/sushi-amane,1
cafe_boulud,40.77439,-73.96414,new_york,new_york_city,french,4,https://guide.michelin.com/us/en/new-york-state/new-york/restaurant/cafe-boulud,1
claro,40.677395,-73.98615,new_york,new_york_city,mexican,2,https://guide.michelin.com/us/en/new-york-state/new-york/restaurant/claro,1
satsuki,40.801243,-73.95187,new_york,new_york_city,japanese,4,https://guide.michelin.com/us/en/new-york-state/new-york/restaurant/satsuki,1
sushi_noz,40.77384,-73.958275,new_york,new_york_city,japanese,4,https://guide.michelin.com/us/en/new-york-state/new-york/restaurant/sushi-noz,1
sushi_inoue,40.810448,-73.943726,new_york,new_york_city,japanese,4,https://guide.michelin.com/us/en/new-york-state/new-york/restaurant/sushi-inoue,1
meadowsweet,40.710354,-73.96316999999999,new_york,new_york_city,mediterranean,3,https://guide.michelin.com/us/en/new-york-state/new-york/restaurant/meadowsweet,1
casa_enrique,40.743492,-73.95425,new_york,new_york_city,mexican,2,https://guide.michelin.com/us/en/new-york-state/new-york/restaurant/casa-enrique,1
peter_luger,40.70986,-73.96263,new_york,new_york_city,steakhouse,4,https://guide.michelin.com/us/en/new-york-state/new-york/restaurant/peter-luger,1
oxomoco,40.730057,-73.95538,new_york,new_york_city,mexican,3,https://guide.michelin.com/us/en/new-york-state/new-york/restaurant/oxomoco,1
the_finch,40.68704,-73.96297,new_york,new_york_city,american,3,https://guide.michelin.com/us/en/new-york-state/new-york/restaurant/the-finch,1
faro,40.707584,-73.923035,new_york,new_york_city,american,2,https://guide.michelin.com/us/en/new-york-state/new-york/restaurant/faro,1
senses,52.244583,21.005886,warszawa,poland,modern,5,https://guide.michelin.com/pl/en/masovia/warszawa/restaurant/senses,1
atelier_amaro,52.21708,21.03768,warszawa,poland,modern,4,https://guide.michelin.com/pl/en/masovia/warszawa/restaurant/atelier-amaro,1
aniar,53.27112,-9.057078,galway,ireland,creative,na,https://guide.michelin.com/ie/en/galway/gaillimh-galway/restaurant/aniar,1
loam,53.27384,-9.044447,galway,ireland,creative,na,https://guide.michelin.com/ie/en/galway/gaillimh-galway/restaurant/loam,1
wild_honey_inn,53.03151,-9.2911,lisdoonvarna,ireland,classic,na,https://guide.michelin.com/ie/en/clare/lios-duin-bhearna-lisdoonvarna/restaurant/wild-honey-inn,1
chestnut,51.562588,-9.460854,ballydehob,ireland,modern,na,https://guide.michelin.com/ie/en/cork/ballydehob/restaurant/chestnut,1
mews,51.48285,-9.37234,baltimore,ireland,modern,na,https://guide.michelin.com/ie/en/cork/ie-baltimore/restaurant/mews,1
ichigo_ichie,51.898167,-8.479933,cork,ireland,japanese,na,https://guide.michelin.com/ie/en/cork/corcaigh-cork/restaurant/ichigo-ichie,1
chapter_one,53.354374,-6.263786,city_centre,ireland,modern,na,https://guide.michelin.com/ie/en/dublin/city-centre/restaurant/chapter-one,1
greenhouse,53.340042,-6.258506,city_centre,ireland,modern,na,https://guide.michelin.com/ie/en/dublin/city-centre/restaurant/greenhouse,1
l_ecrivain,53.33626999999999,-6.24834,city_centre,ireland,modern,na,https://guide.michelin.com/ie/en/dublin/city-centre/restaurant/l-ecrivain,1
campagne,52.6559,-7.2464285,kilkenny,ireland,british,na,https://guide.michelin.com/ie/en/kilkenny/cill-chainnigh-kilkenny/restaurant/campagne,1
heron_grey,53.30143,-6.177574,blackrock,ireland,modern,na,https://guide.michelin.com/ie/en/dun-laoghaire-rathdown/blackrock/restaurant/heron-grey,1
lady_helen,52.526096,-7.188277,thomastown,ireland,modern,na,https://guide.michelin.com/ie/en/kilkenny/baile-mhic-andain-thomastown/restaurant/lady-helen,1
house,51.94777,-7.713539599999999,ardmore,ireland,modern,na,https://guide.michelin.com/ie/en/waterford/aird-mhor-ardmore/restaurant/house,1
olympe,-22.96109,-43.20658,rio_de_janeiro,rio_de_janeiro,french,5,https://guide.michelin.com/br/en/rio-de-janeiro-region/rio-de-janeiro/restaurant/olympe,1
lasai,-22.95401,-43.19557,rio_de_janeiro,rio_de_janeiro,modern,5,https://guide.michelin.com/br/en/rio-de-janeiro-region/rio-de-janeiro/restaurant/lasai,1
oteque,-22.95747,-43.194424,rio_de_janeiro,rio_de_janeiro,modern,5,https://guide.michelin.com/br/en/rio-de-janeiro-region/rio-de-janeiro/restaurant/oteque,1
mee,-22.96764,-43.17925,rio_de_janeiro,rio_de_janeiro,asian,5,https://guide.michelin.com/br/en/rio-de-janeiro-region/rio-de-janeiro/restaurant/mee,1
cipriani,-22.96755,-43.17901,rio_de_janeiro,rio_de_janeiro,italian,5,https://guide.michelin.com/br/en/rio-de-janeiro-region/rio-de-janeiro/restaurant/cipriani,1
jun_sakamoto,-23.56318,-46.67737,sao_paulo,sao_paulo,japanese,5,https://guide.michelin.com/br/en/sao-paulo-region/sao-paulo/restaurant/jun-sakamoto,1
mani,-23.56621,-46.67974,sao_paulo,sao_paulo,creative,5,https://guide.michelin.com/br/en/sao-paulo-region/sao-paulo/restaurant/mani,1
evvai,-23.567078,-46.679146,sao_paulo,sao_paulo,modern,5,https://guide.michelin.com/br/en/sao-paulo-region/sao-paulo/restaurant/evvai,1
picchi,-23.565063,-46.666767,sao_paulo,sao_paulo,italian,5,https://guide.michelin.com/br/en/sao-paulo-region/sao-paulo/restaurant/picchi,1
kosushi,-23.58522,-46.6809,sao_paulo,sao_paulo,japanese,3,https://guide.michelin.com/br/en/sao-paulo-region/sao-paulo/restaurant/kosushi,1
ryo_gastronomia,-23.58132,-46.6767,sao_paulo,sao_paulo,japanese,5,https://guide.michelin.com/br/en/sao-paulo-region/sao-paulo/restaurant/ryo-gastronomia,1
tangara_jean_georges,-23.634005,-46.72428,sao_paulo,sao_paulo,modern,5,https://guide.michelin.com/br/en/sao-paulo-region/sao-paulo/restaurant/tangara-jean-georges,1
kinoshita,-23.59159,-46.67146,sao_paulo,sao_paulo,japanese,5,https://guide.michelin.com/br/en/sao-paulo-region/sao-paulo/restaurant/kinoshita,1
kan_suke,-23.5684,-46.64936,sao_paulo,sao_paulo,japanese,5,https://guide.michelin.com/br/en/sao-paulo-region/sao-paulo/restaurant/kan-suke,1
huto,-23.60882,-46.6598,sao_paulo,sao_paulo,japanese,5,https://guide.michelin.com/br/en/sao-paulo-region/sao-paulo/restaurant/huto,1
stay,37.513004,127.10257,seoul,south_korea,french,3,https://guide.michelin.com/kr/en/seoul-capital-area/kr-seoul/restaurant/stay,1
lee_jong_kuk_104,37.592903,126.997284,seoul,south_korea,korean,4,https://guide.michelin.com/kr/en/seoul-capital-area/kr-seoul/restaurant/lee-jong-kuk-104,1
hansikgonggan,37.577705,126.98852,seoul,south_korea,korean,3,https://guide.michelin.com/kr/en/seoul-capital-area/kr-seoul/restaurant/hansikgonggan,1
dining_in_space,37.57761,126.98845,seoul,south_korea,french,3,https://guide.michelin.com/kr/en/seoul-capital-area/kr-seoul/restaurant/dining-in-space,1
exquisine,37.521046000000005,127.049736,seoul,south_korea,innovative,3,https://guide.michelin.com/kr/en/seoul-capital-area/kr-seoul/restaurant/exquisine,1
dosa,37.52445,127.04441,seoul,south_korea,innovative,3,https://guide.michelin.com/kr/en/seoul-capital-area/kr-seoul/restaurant/dosa511871,1
joo_ok,37.52252,127.04396,seoul,south_korea,korean,3,https://guide.michelin.com/kr/en/seoul-capital-area/kr-seoul/restaurant/joo-ok,1
balwoo_gongyang,37.573890000000006,126.98318,seoul,south_korea,temple,2,https://guide.michelin.com/kr/en/seoul-capital-area/kr-seoul/restaurant/balwoo-gongyang,1
muoki,37.518963,127.04217,seoul,south_korea,innovative,3,https://guide.michelin.com/kr/en/seoul-capital-area/kr-seoul/restaurant/muoki,1
l_amitie,37.522675,127.032646,seoul,south_korea,french,3,https://guide.michelin.com/kr/en/seoul-capital-area/kr-seoul/restaurant/l-amitie,1
yu_yuan,37.57045,126.97534,seoul,south_korea,chinese,3,https://guide.michelin.com/kr/en/seoul-capital-area/kr-seoul/restaurant/yu-yuan,1
bicena,37.5384,127.00135,seoul,south_korea,korean,3,https://guide.michelin.com/kr/en/seoul-capital-area/kr-seoul/restaurant/bicena,1
mosu,37.536415000000005,126.99934,seoul,south_korea,innovative,5,https://guide.michelin.com/kr/en/seoul-capital-area/kr-seoul/restaurant/mosu,1
poom,37.54903,126.98341,seoul,south_korea,korean,3,https://guide.michelin.com/kr/en/seoul-capital-area/kr-seoul/restaurant/poom,1
soigne,37.49816,127.002,seoul,south_korea,innovative,3,https://guide.michelin.com/kr/en/seoul-capital-area/kr-seoul/restaurant/soigne,1
table_for_four,37.497690000000006,126.99442,seoul,south_korea,european,3,https://guide.michelin.com/kr/en/seoul-capital-area/kr-seoul/restaurant/table-for-four,1
zero_complex,37.49417,126.9948,seoul,south_korea,innovative,3,https://guide.michelin.com/kr/en/seoul-capital-area/kr-seoul/restaurant/zero-complex,1
jin_jin,37.55777,126.91324,seoul,south_korea,chinese,1,https://guide.michelin.com/kr/en/seoul-capital-area/kr-seoul/restaurant/jin-jin,1
gotgan,37.52212,126.92022,seoul,south_korea,korean,4,https://guide.michelin.com/kr/en/seoul-capital-area/kr-seoul/restaurant/gotgan,1
hill_street_tai_hwa_pork_noodle,1.3052,103.8624,singapore,singapore,street_food,1,https://guide.michelin.com/sg/en/singapore-region/singapore/restaurant/hill-street-tai-hwa-pork-noodle,1
putien_kitchener_road_,1.30969,103.8573,singapore,singapore,fujian,1,https://guide.michelin.com/sg/en/singapore-region/singapore/restaurant/putien-kitchener-road,1
chef_kang_s,1.304735,103.84955,singapore,singapore,cantonese,3,https://guide.michelin.com/sg/en/singapore-region/singapore/restaurant/chef-kang-s,1
garibaldi,1.296564,103.855,singapore,singapore,italian,1,https://guide.michelin.com/sg/en/singapore-region/singapore/restaurant/garibaldi,1
summer_pavilion,1.291284,103.8603,singapore,singapore,cantonese,2,https://guide.michelin.com/sg/en/singapore-region/singapore/restaurant/summer-pavilion,1
shinji_bras_basah_road_,1.2959028,103.8539,singapore,singapore,sushi,2,https://guide.michelin.com/sg/en/singapore-region/singapore/restaurant/shinji-bras-basah-road,1
the_song_of_india,1.310767,103.8353,singapore,singapore,indian,1,https://guide.michelin.com/sg/en/singapore-region/singapore/restaurant/the-song-of-india,1
lei_garden,1.295228,103.8521,singapore,singapore,cantonese,1,https://guide.michelin.com/sg/en/singapore-region/singapore/restaurant/lei-garden501509,1
whitegrass,1.295452,103.8516,singapore,singapore,australian,2,https://guide.michelin.com/sg/en/singapore-region/singapore/restaurant/whitegrass,1
jaan,1.293184,103.8529,singapore,singapore,french,3,https://guide.michelin.com/sg/en/singapore-region/singapore/restaurant/jaan,1
labyrinth,1.2899688,103.8562,singapore,singapore,innovative,2,https://guide.michelin.com/sg/en/singapore-region/singapore/restaurant/labyrinth,1
cut,1.2853268,103.8607,singapore,singapore,steakhouse,3,https://guide.michelin.com/sg/en/singapore-region/singapore/restaurant/cut,1
alma,1.309123,103.834,singapore,singapore,european,1,https://guide.michelin.com/sg/en/singapore-region/singapore/restaurant/alma,1
beni,1.3023790000000002,103.8366,singapore,singapore,french,2,https://guide.michelin.com/sg/en/singapore-region/singapore/restaurant/beni,1
crystal_jade_golden_palace,1.303244,103.8353,singapore,singapore,chinese,1,https://guide.michelin.com/sg/en/singapore-region/singapore/restaurant/crystal-jade-golden-palace,1
imperial_treasure_fine_teochew_cuisine_orchard_,1.3032448,103.8349,singapore,singapore,chinese,1,https://guide.michelin.com/sg/en/singapore-region/singapore/restaurant/imperial-treasure-fine-teochew-cuisine-orchard,1
saint_pierre,1.2857809999999998,103.8538,singapore,singapore,french,2,https://guide.michelin.com/sg/en/singapore-region/singapore/restaurant/saint-pierre,1
sushi_ichi,1.305105,103.8324,singapore,singapore,sushi,3,https://guide.michelin.com/sg/en/singapore-region/singapore/restaurant/sushi-ichi,1
sushi_kimura,1.3063718999999998,103.829475,singapore,singapore,sushi,4,https://guide.michelin.com/sg/en/singapore-region/singapore/restaurant/sushi-kimura,1
iggy_s,1.305986,103.8294,singapore,singapore,european,3,https://guide.michelin.com/sg/en/singapore-region/singapore/restaurant/iggy-s,1
braci,1.287212,103.84949,singapore,singapore,italian,2,https://guide.michelin.com/sg/en/singapore-region/singapore/restaurant/braci,1
jiang_nan_chun,1.304937,103.8288,singapore,singapore,cantonese,3,https://guide.michelin.com/sg/en/singapore-region/singapore/restaurant/jiang-nan-chun,1
bacchanalia,1.2874758,103.8474,singapore,singapore,innovative,2,https://guide.michelin.com/sg/en/singapore-region/singapore/restaurant/bacchanalia,1
shinji_tanglin_road_,1.305821,103.8257,singapore,singapore,sushi,4,https://guide.michelin.com/sg/en/singapore-region/singapore/restaurant/shinji-tanglin-road,1
corner_house,1.315121,103.8154,singapore,singapore,innovative,2,https://guide.michelin.com/sg/en/singapore-region/singapore/restaurant/corner-house,1
summer_palace,1.3043848,103.825,singapore,singapore,cantonese,1,https://guide.michelin.com/sg/en/singapore-region/singapore/restaurant/summer-palace501658,1
cheek_by_jowl,1.281301,103.84849,singapore,singapore,australian,1,https://guide.michelin.com/sg/en/singapore-region/singapore/restaurant/cheek-by-jowl,1
nouri,1.28086,103.84713,singapore,singapore,innovative,1,https://guide.michelin.com/sg/en/singapore-region/singapore/restaurant/nouri,1
liao_fan_hong_kong_soya_sauce_chicken_rice_noodle,1.2824799999999998,103.8439,singapore,singapore,street_food,1,https://guide.michelin.com/sg/en/singapore-region/singapore/restaurant/liao-fan-hong-kong-soya-sauce-chicken-rice-noodle,1
burnt_ends,1.280501,103.8418,singapore,singapore,barbecue,2,https://guide.michelin.com/sg/en/singapore-region/singapore/restaurant/burnt-ends,1
rhubarb,1.279368,103.843,singapore,singapore,french,1,https://guide.michelin.com/sg/en/singapore-region/singapore/restaurant/rhubarb,1
meta,1.279372,103.8415,singapore,singapore,innovative,2,https://guide.michelin.com/sg/en/singapore-region/singapore/restaurant/meta,1
ma_cuisine,1.27826,103.842,singapore,singapore,french,1,https://guide.michelin.com/sg/en/singapore-region/singapore/restaurant/ma-cuisine,1
candlenut,1.2797709,103.8402,singapore,singapore,peranakan,1,https://guide.michelin.com/sg/en/singapore-region/singapore/restaurant/candlenut,1
bhoga,57.70618,11.9624,goteborg,sweden,creative,3,https://guide.michelin.com/se/en/vastra-gotaland/goteborg/restaurant/bhoga,1
koka,57.698406000000006,11.965365,goteborg,sweden,modern,3,https://guide.michelin.com/se/en/vastra-gotaland/goteborg/restaurant/koka,1
twenty_eight,57.69809,11.97377,goteborg,sweden,modern,3,https://guide.michelin.com/se/en/vastra-gotaland/goteborg/restaurant/28,1
sk_mat_manniskor,57.69688000000001,11.98338,goteborg,sweden,modern,3,https://guide.michelin.com/se/en/vastra-gotaland/goteborg/restaurant/sk-mat-manniskor,1
thornstroms_kok,57.69436999999999,11.977609,goteborg,sweden,classic,3,https://guide.michelin.com/se/en/vastra-gotaland/goteborg/restaurant/thornstroms-kok,1
upper_house,57.69745,11.99021,goteborg,sweden,creative,4,https://guide.michelin.com/se/en/vastra-gotaland/goteborg/restaurant/upper-house,1
agrikultur,59.34777,18.05863,stockholm,sweden,modern,4,https://guide.michelin.com/se/en/stockholm-region/stockholm/restaurant/agrikultur,1
sushi_sho,59.341286,18.049892,stockholm,sweden,japanese,3,https://guide.michelin.com/se/en/stockholm-region/stockholm/restaurant/sushi-sho,1
volt,59.33866999999999,18.079683,stockholm,sweden,creative,3,https://guide.michelin.com/se/en/stockholm-region/stockholm/restaurant/volt,1
ekstedt,59.33674,18.07521,stockholm,sweden,meats,3,https://guide.michelin.com/se/en/stockholm-region/stockholm/restaurant/ekstedt,1
operakallaren,59.329876,18.071363,stockholm,sweden,classic,4,https://guide.michelin.com/se/en/stockholm-region/stockholm/restaurant/operakallaren,1
mathias_dahlgren_matbaren,59.32935,18.07543,stockholm,sweden,modern,2,https://guide.michelin.com/se/en/stockholm-region/stockholm/restaurant/mathias-dahlgren-matbaren,1
aloe,59.2842,17.985748,stockholm,sweden,creative,4,https://guide.michelin.com/se/en/stockholm-region/stockholm/restaurant/aloe,1
pm_vanner,56.87892,14.803870000000002,vaxjo,sweden,creative,3,https://guide.michelin.com/se/en/kronoberg/vaxjo/restaurant/pm-vanner,1
bloom_in_the_park,55.59064,12.99794,malmo,sweden,creative,2,https://guide.michelin.com/se/en/skane/malmo/restaurant/bloom-in-the-park,1
sav,55.53376,13.00537,malmo,sweden,creative,3,https://guide.michelin.com/se/en/skane/malmo/restaurant/sav,1
golden_formosa,25.118216,121.53623,taipei,taipei,taiwanese,2,https://guide.michelin.com/tw/en/taipei-region/taipei/restaurant/golden-formosa,1
danny_s_steakhouse,25.082657,121.552765,taipei,taipei,steakhouse,2,https://guide.michelin.com/tw/en/taipei-region/taipei/restaurant/danny-s-steakhouse,1
l_atelier_de_joel_robuchon,25.039188,121.56771,taipei,taipei,french,3,https://guide.michelin.com/tw/en/taipei-region/taipei/restaurant/l-atelier-de-joel-robuchon550759,1
kitcho,25.04429,121.55076,taipei,taipei,sushi,4,https://guide.michelin.com/tw/en/taipei-region/taipei/restaurant/kitcho,1
tien_hsiang_lo,25.062696,121.529976,taipei,taipei,hang_zhou,2,https://guide.michelin.com/tw/en/taipei-region/taipei/restaurant/tien-hsiang-lo,1
ya_ge,25.06625,121.52533,taipei,taipei,cantonese,2,https://guide.michelin.com/tw/en/taipei-region/taipei/restaurant/ya-ge,1
da_wan,25.043018,121.55019,taipei,taipei,barbecue,3,https://guide.michelin.com/tw/en/taipei-region/taipei/restaurant/da-wan,1
sushi_nomura,25.03618,121.55465,taipei,taipei,sushi,3,https://guide.michelin.com/tw/en/taipei-region/taipei/restaurant/sushi-nomura,1
logy,25.03561,121.55323,taipei,taipei,asian,4,https://guide.michelin.com/tw/en/taipei-region/taipei/restaurant/logy,1
ming_fu,25.06171,121.52399,taipei,taipei,taiwanese,3,https://guide.michelin.com/tw/en/taipei-region/taipei/restaurant/ming-fu,1
ken_an_ho,25.034622,121.55281,taipei,taipei,japanese,4,https://guide.michelin.com/tw/en/taipei-region/taipei/restaurant/ken-an-ho,1
sushi_ryu,25.055832,121.52724,taipei,taipei,sushi,4,https://guide.michelin.com/tw/en/taipei-region/taipei/restaurant/sushi-ryu,1
mume,25.036266,121.54809,taipei,taipei,european,3,https://guide.michelin.com/tw/en/taipei-region/taipei/restaurant/mume,1
impromptu_by_paul_lee,25.05429,121.524254,taipei,taipei,innovative,3,https://guide.michelin.com/tw/en/taipei-region/taipei/restaurant/impromptu-by-paul-lee,1
longtail,25.023922,121.54841,taipei,taipei,innovative,2,https://guide.michelin.com/tw/en/taipei-region/taipei/restaurant/longtail,1
mountain_and_sea_house,25.038046,121.531395,taipei,taipei,taiwanese,2,https://guide.michelin.com/tw/en/taipei-region/taipei/restaurant/mountain-and-sea-house,1
da_san_yuan,25.042248,121.512215,taipei,taipei,cantonese,1,https://guide.michelin.com/tw/en/taipei-region/taipei/restaurant/da-san-yuan,1
tainan_tan_tsu_mien_seafood,25.03799,121.4984,taipei,taipei,seafood,2,https://guide.michelin.com/tw/en/taipei-region/taipei/restaurant/tainan-tan-tsu-mien-seafood,1
suan_thip,13.926962,100.502144,bangkok,thailand,thai,1,https://guide.michelin.com/th/en/bangkok-region/bangkok/restaurant/suan-thip,1
upstairs_at_mikkeller,13.727946,100.58844,bangkok,thailand,innovative,5,https://guide.michelin.com/th/en/bangkok-region/bangkok/restaurant/upstairs-at-mikkeller,1
chim_by_siam_wisdom,13.740706,100.56789,bangkok,thailand,thai,3,https://guide.michelin.com/th/en/bangkok-region/bangkok/restaurant/chim-by-siam-wisdom,1
r_haan,13.731805,100.57972,bangkok,thailand,thai,4,https://guide.michelin.com/th/en/bangkok-region/bangkok/restaurant/r-haan,1
canvas,13.728886,100.580826,bangkok,thailand,innovative,4,https://guide.michelin.com/th/en/bangkok-region/bangkok/restaurant/canvas566292,1
bolan,13.726389,100.57799,bangkok,thailand,thai,5,https://guide.michelin.com/th/en/bangkok-region/bangkok/restaurant/bo-lan,1
sra_bua_by_kiin_kiin,13.754137,100.53451,bangkok,thailand,thai,3,https://guide.michelin.com/th/en/bangkok-region/bangkok/restaurant/sra-bua-by-kiin-kiin,1
elements,13.742978,100.54798,bangkok,thailand,french,4,https://guide.michelin.com/th/en/bangkok-region/bangkok/restaurant/elements,1
paste,13.744594,100.540565,bangkok,thailand,thai,3,https://guide.michelin.com/th/en/bangkok-region/bangkok/restaurant/paste,1
ginza_sushi_ichi,13.744069,100.54092,bangkok,thailand,sushi,4,https://guide.michelin.com/th/en/bangkok-region/bangkok/restaurant/ginza-sushi-ichi,1
sorn,13.723242,100.56848,bangkok,thailand,thai,5,https://guide.michelin.com/th/en/bangkok-region/bangkok/restaurant/sorn,1
savelberg,13.738216,100.54642,bangkok,thailand,french,3,https://guide.michelin.com/th/en/bangkok-region/bangkok/restaurant/savelberg,1
saneh_jaan,13.735739,100.54605,bangkok,thailand,thai,2,https://guide.michelin.com/th/en/bangkok-region/bangkok/restaurant/saneh-jaan,1
gaa,13.737806,100.54275,bangkok,thailand,innovative,4,https://guide.michelin.com/th/en/bangkok-region/bangkok/restaurant/gaa,1
methavalai_sorndaeng,13.756321,100.502045,bangkok,thailand,thai,2,https://guide.michelin.com/th/en/bangkok-region/bangkok/restaurant/methavalai-sorndaeng,1
jay_fai,13.752614,100.50466,bangkok,thailand,street_food,2,https://guide.michelin.com/th/en/bangkok-region/bangkok/restaurant/jay-fai,1
nahm,13.724357,100.53926,bangkok,thailand,thai,3,https://guide.michelin.com/th/en/bangkok-region/bangkok/restaurant/nahm,1
j_aime_by_jean_michel_lorain,13.718885,100.546326,bangkok,thailand,french,3,https://guide.michelin.com/th/en/bangkok-region/bangkok/restaurant/j-aime-by-jean-michel-lorain,1
saawaan,13.721809,100.53741,bangkok,thailand,thai,4,https://guide.michelin.com/th/en/bangkok-region/bangkok/restaurant/saawaan,1
le_du,13.725005,100.52939,bangkok,thailand,thai,4,https://guide.michelin.com/th/en/bangkok-region/bangkok/restaurant/le-du,1
ruean_panya,13.558403,100.28264,bangkok,thailand,thai,2,https://guide.michelin.com/th/en/bangkok-region/bangkok/restaurant/ruean-panya,1
pru,8.034298,98.2764,phuket,thailand,innovative,5,https://guide.michelin.com/th/en/phuket-region/phuket/restaurant/pru,1
blue_duck_tavern,38.905373,-77.05128,washington_dc,washington_dc,american,3,https://guide.michelin.com/us/en/washington/washington-dc/restaurant/blue-duck-tavern,1
tail_up_goat,38.9235,-77.043274,washington_dc,washington_dc,contemporary,2,https://guide.michelin.com/us/en/washington/washington-dc/restaurant/tail-up-goat,1
komi,38.910107,-77.03836,washington_dc,washington_dc,mediterranean,4,https://guide.michelin.com/us/en/washington/washington-dc/restaurant/komi,1
sushi_taro,38.909992,-77.03834,washington_dc,washington_dc,japanese,4,https://guide.michelin.com/us/en/washington/washington-dc/restaurant/sushi-taro,1
plume,38.906,-77.03671,washington_dc,washington_dc,european,4,https://guide.michelin.com/us/en/washington/washington-dc/restaurant/plume,1
siren_by_rw,38.907776,-77.035446,washington_dc,washington_dc,seafood,3,https://guide.michelin.com/us/en/washington/washington-dc/restaurant/siren-by-rw,1
bresca,38.91584,-77.0321,washington_dc,washington_dc,contemporary,2,https://guide.michelin.com/us/en/washington/washington-dc/restaurant/bresca,1
the_dabney,38.906292,-77.024666,washington_dc,washington_dc,american,2,https://guide.michelin.com/us/en/washington/washington-dc/restaurant/the-dabney,1
metier,38.903503,-77.0218,washington_dc,washington_dc,contemporary,4,https://guide.michelin.com/us/en/washington/washington-dc/restaurant/metier,1
kinship,38.903282,-77.0218,washington_dc,washington_dc,contemporary,3,https://guide.michelin.com/us/en/washington/washington-dc/restaurant/kinship,1
fiola,38.89416,-77.02032,washington_dc,washington_dc,italian,4,https://guide.michelin.com/us/en/washington/washington-dc/restaurant/fiola,1
masseria,38.909504,-76.99908,washington_dc,washington_dc,italian,3,https://guide.michelin.com/us/en/washington/washington-dc/restaurant/masseria,1
rose_s_luxury,38.88064,-76.99515,washington_dc,washington_dc,contemporary,2,https://guide.michelin.com/us/en/washington/washington-dc/restaurant/rose-s-luxury,1
loch_bay,57.51487,-6.57114,waternish,united_kingdom,modern,na,https://guide.michelin.com/gb/en/highland/waternish/restaurant/loch-bay,1
braidwoods,55.69474,-4.7425,dalry,united_kingdom,classic,na,https://guide.michelin.com/gb/en/north-ayrshire/dalry/restaurant/braidwoods,1
eipic,54.595898,-5.932242400000001,belfast,united_kingdom,modern,na,https://guide.michelin.com/gb/en/belfast/belfast/restaurant/eipic,1
ox,54.59891,-5.9219800000000005,belfast,united_kingdom,british,na,https://guide.michelin.com/gb/en/belfast/belfast/restaurant/ox399109,1
the_peat_inn,56.27861,-2.8845797,peat_inn,united_kingdom,classic,na,https://guide.michelin.com/gb/en/fife/peat-inn/restaurant/the-peat-inn,1
kitchin,55.976967,-3.172842,leith,united_kingdom,modern,na,https://guide.michelin.com/gb/en/city-of-edinburgh/leith/restaurant/kitchin,1
martin_wishart,55.97552,-3.1701900000000003,leith,united_kingdom,modern,na,https://guide.michelin.com/gb/en/city-of-edinburgh/leith/restaurant/martin-wishart,1
number_one,55.95298,-3.18966,edinburgh,united_kingdom,modern,na,https://guide.michelin.com/gb/en/city-of-edinburgh/edinburgh/restaurant/number-one,1
21212,55.95674,-3.18018,edinburgh,united_kingdom,creative,na,https://guide.michelin.com/gb/en/city-of-edinburgh/edinburgh/restaurant/21212,1
the_cellar,56.222126,-2.696321,anstruther,united_kingdom,modern,na,https://guide.michelin.com/gb/en/fife/anstruther/restaurant/the-cellar,1
forest_side,54.46396,-3.0157998,grasmere,united_kingdom,british,na,https://guide.michelin.com/gb/en/cumbria/grasmere/restaurant/forest-side,1
hrishi,54.35013000000001,-2.91172,bowness_on_windermere,united_kingdom,modern,na,https://guide.michelin.com/gb/en/cumbria/bowness-on-windermere/restaurant/hrishi,1
rogan_co,54.20074,-2.95464,cartmel,united_kingdom,british,na,https://guide.michelin.com/gb/en/cumbria/cartmel/restaurant/rogan-co,1
house_of_tides,54.967580000000005,-1.61127,newcastle_upon_tyne,united_kingdom,modern,na,https://guide.michelin.com/gb/en/tyne-and-wear/newcastle-upon-tyne/restaurant/house-of-tides,1
sosban_the_old_butchers,53.225925,-4.163006,porthaethwy,united_kingdom,modern,na,https://guide.michelin.com/gb/en/isle-of-anglesey/menai-bridge-porthaethwy/restaurant/sosban-the-old-butchers,1
northcote,53.80933,-2.4476,langho,united_kingdom,british,na,https://guide.michelin.com/gb/en/lancashire/langho/restaurant/northcote,1
yorke_arms,54.13435,-1.8183095,pateley_bridge,united_kingdom,modern,na,https://guide.michelin.com/gb/en/north-yorkshire/pateley-bridge/restaurant/yorke-arms,1
fraiche,53.38183000000001,-3.04307,birkenhead,united_kingdom,creative,na,https://guide.michelin.com/gb/en/merseyside/birkenhead/restaurant/fraiche,1
white_swan,53.83916,-2.25097,fence,united_kingdom,british,na,https://guide.michelin.com/gb/en/lancashire/fence/restaurant/white-swan,1
tyddyn_llan,52.92405,-3.44329,llandrillo,united_kingdom,classic,na,https://guide.michelin.com/gb/en/denbighshire/llandrillo/restaurant/tyddyn-llan,1
ynyshir,52.54476,-3.94491,machynlleth,united_kingdom,creative,na,https://guide.michelin.com/gb/en/ceredigion/machynlleth/restaurant/ynyshir,1
black_swan,54.21205,-1.1879198999999998,oldstead,united_kingdom,british,na,https://guide.michelin.com/gb/en/north-yorkshire/oldstead/restaurant/black-swan,1
simon_radley_at_chester_grosvenor,53.19064,-2.88913,chester,united_kingdom,modern,na,https://guide.michelin.com/gb/en/cheshire-west-and-chester/chester/restaurant/simon-radley-at-chester-grosvenor,1
star_inn_at_harome,54.23101,-1.01023,harome,united_kingdom,british,na,https://guide.michelin.com/gb/en/north-yorkshire/harome/restaurant/star-inn-at-harome,1
the_man_behind_the_curtain,53.798286,-1.539937,leeds,united_kingdom,creative,na,https://guide.michelin.com/gb/en/kent/leeds/restaurant/the-man-behind-the-curtain,1
the_checkers,52.55568,-3.13769,trefaldwyn,united_kingdom,french,na,https://guide.michelin.com/gb/en/powys/montgomery-trefaldwyn/restaurant/the-checkers,1
pipe_and_glass,53.8955,-0.53301,dalton,united_kingdom,british,na,https://guide.michelin.com/gb/en/east-riding-of-yorkshire/south-dalton/restaurant/pipe-and-glass,1
fischer_s_at_baslow_hall,53.25055,-1.6269798,baslow,united_kingdom,modern,na,https://guide.michelin.com/gb/en/derbyshire/baslow/restaurant/fischer-s-at-baslow-hall,1
winteringham_fields,53.68778,-0.59013,winteringham,united_kingdom,modern,na,https://guide.michelin.com/gb/en/north-lincolnshire/winteringham/restaurant/winteringham-fields,1
thomas_carr_the_olive_room,51.209476,-4.118807,ilfracombe,united_kingdom,seafood,na,https://guide.michelin.com/gb/en/devon/ilfracombe/restaurant/thomas-carr-the-olive-room,1
walnut_tree,51.84534,-2.95438,llanddewi_skirrid,united_kingdom,british,na,https://guide.michelin.com/gb/en/monmouthshire/llanddewi-skirrid/restaurant/walnut-tree,1
paul_ainsworth_at_no6,50.541534000000006,-4.9398518,padstow,united_kingdom,modern,na,https://guide.michelin.com/gb/en/cornwall/padstow/restaurant/paul-ainsworth-at-no-6,1
simpsons,52.46925,-1.9238801,birmingham,united_kingdom,modern,na,https://guide.michelin.com/gb/en/west-midlands/birmingham/restaurant/simpsons,1
purnell_s,52.48268,-1.9018,birmingham,united_kingdom,modern,na,https://guide.michelin.com/gb/en/west-midlands/birmingham/restaurant/purnell-s,1
adam_s,52.47964,-1.900286,birmingham,united_kingdom,modern,na,https://guide.michelin.com/gb/en/west-midlands/birmingham/restaurant/adam-s,1
outlaw_s_fish_kitchen,50.59206,-4.832,port_isaac,united_kingdom,seafood,na,https://guide.michelin.com/gb/en/cornwall/port-isaac/restaurant/outlaw-s-fish-kitchen,1
carters_of_moseley,52.44588,-1.88384,birmingham,united_kingdom,british,na,https://guide.michelin.com/gb/en/west-midlands/birmingham/restaurant/carters-of-moseley,1
peel_s,52.4259,-1.7053599999999998,hampton_in_arden,united_kingdom,british,na,https://guide.michelin.com/gb/en/west-midlands/hampton-in-arden/restaurant/peel-s,1
john_s_house,52.73295,-1.145851,mountsorrel,united_kingdom,modern,na,https://guide.michelin.com/gb/en/leicestershire/mountsorrel/restaurant/john-s-house,1
the_whitebrook,51.759697,-2.686909,whitebrook,united_kingdom,british,na,https://guide.michelin.com/gb/en/monmouthshire/whitebrook/restaurant/the-whitebrook,1
james_sommerin,51.434387,-3.167951,penarth,united_kingdom,modern,na,https://guide.michelin.com/gb/en/the-vale-of-glamorgan/penarth/restaurant/james-sommerin,1
driftwood,50.1889,-4.97088,portscatho,united_kingdom,modern,na,https://guide.michelin.com/gb/en/cornwall/portscatho/restaurant/driftwood,1
the_cross_at_kenilworth,52.350315,-1.5801147,kenilworth,united_kingdom,classic,na,https://guide.michelin.com/gb/en/warwickshire/kenilworth/restaurant/the-cross-at-kenilworth,1
masons_arms,50.995470000000005,-3.67163,knowstone,united_kingdom,french,na,https://guide.michelin.com/gb/en/devon/knowstone/restaurant/masons-arms,1
salt,52.18963,-1.7092043,stratford_upon_avon,united_kingdom,british,na,https://guide.michelin.com/gb/en/warwickshire/stratford-upon-avon/restaurant/salt522869,1
le_champignon_sauvage,51.89146,-2.07912,cheltenham,united_kingdom,modern,na,https://guide.michelin.com/gb/en/gloucestershire/cheltenham/restaurant/le-champignon-sauvage,1
gidleigh_park,50.67658,-3.87354,chagford,united_kingdom,modern,na,https://guide.michelin.com/gb/en/devon/chagford/restaurant/gidleigh-park,1
hambleton_hall,52.65736999999999,-0.6681199999999999,upperhambleton,united_kingdom,classic,na,https://guide.michelin.com/gb/en/rutland/upper-hambleton/restaurant/hambleton-hall,1
wilks,51.46737,-2.6069899,bristol,united_kingdom,british,na,https://guide.michelin.com/gb/en/south-gloucestershire/bristol/restaurant/wilks,1
bulrush,51.46278,-2.597758,bristol,united_kingdom,british,na,https://guide.michelin.com/gb/en/south-gloucestershire/bristol/restaurant/bulrush,1
casamia,51.447254,-2.5940728,bristol,united_kingdom,creative,na,https://guide.michelin.com/gb/en/south-gloucestershire/bristol/restaurant/casamia,1
paco_tapas,51.44647,-2.59358,bristol,united_kingdom,spanish,na,https://guide.michelin.com/gb/en/south-gloucestershire/bristol/restaurant/paco-tapas,1
pony_trap,51.34938,-2.5925994,chew_magna,united_kingdom,british,na,https://guide.michelin.com/gb/en/bath-and-north-east-somerset/chew-magna/restaurant/pony-trap,1
the_dining_room,51.58376,-2.14954,malmesbury,united_kingdom,asian,na,https://guide.michelin.com/gb/en/wiltshire/malmesbury/restaurant/the-dining-room193454,1
bybrook,51.49382,-2.23212,castle_combe,united_kingdom,british,na,https://guide.michelin.com/gb/en/wiltshire/castle-combe/restaurant/bybrook,1
restaurant_hywel_jones_by_lucknam_park,51.455020000000005,-2.25941,colerne,united_kingdom,british,na,https://guide.michelin.com/gb/en/wiltshire/colerne/restaurant/restaurant-hywel-jones-by-lucknam-park,1
olive_tree,51.38707,-2.3627,bath,united_kingdom,modern,na,https://guide.michelin.com/gb/en/bath-and-north-east-somerset/bath/restaurant/olive-tree,1
lympstone_manor,50.64069,-3.4186062999999995,lympstone,united_kingdom,modern,na,https://guide.michelin.com/gb/en/devon/lympstone/restaurant/lympstone-manor,1
the_neptune,52.9511,0.50927,hunstanton,united_kingdom,modern,na,https://guide.michelin.com/gb/en/norfolk/hunstanton/restaurant/the-neptune,1
elephant,50.45853,-3.5243800000000003,torquay,united_kingdom,british,na,https://guide.michelin.com/gb/en/torbay/torquay/restaurant/elephant,1
oxford_kitchen,51.776733,-1.264794,oxford,united_kingdom,british,na,https://guide.michelin.com/gb/en/oxfordshire/oxford/restaurant/oxford-kitchen,1
nut_tree,51.83618,-1.1499,murcott,united_kingdom,british,na,https://guide.michelin.com/gb/en/oxfordshire/murcott/restaurant/nut-tree,1
morston_hall,52.954730000000005,0.98729,morston,united_kingdom,british,na,https://guide.michelin.com/gb/en/norfolk/morston/restaurant/morston-hall,1
red_lion_freehouse,51.2736,-1.8007996,east_chisenbury,united_kingdom,classic,na,https://guide.michelin.com/gb/en/wiltshire/east-chisenbury/restaurant/red-lion-freehouse,1
blackbird,51.420887,-1.3493548999999998,newbury,united_kingdom,classic,na,https://guide.michelin.com/gb/en/west-berkshire/newbury/restaurant/blackbird552018,1
woodspeen,51.415802,-1.353532,newbury,united_kingdom,modern,na,https://guide.michelin.com/gb/en/west-berkshire/newbury/restaurant/woodspeen,1
the_coach,51.571712,-0.7772678000000001,marlow,united_kingdom,british,na,https://guide.michelin.com/gb/en/buckinghamshire/marlow/restaurant/the-coach,1
crown,51.524807,-0.7915291,burchetts_green,united_kingdom,regional,na,https://guide.michelin.com/gb/en/windsor-and-maidenhead/burchett-s-green/restaurant/crown442549,1
l_ortolan,51.40833,-0.9542898,shinfield,united_kingdom,french,na,https://guide.michelin.com/gb/en/wokingham/shinfield/restaurant/l-ortolan,1
hinds_head,51.51265,-0.6964100000000001,bray,united_kingdom,british,na,https://guide.michelin.com/gb/en/buckinghamshire/bray/restaurant/hinds-head,1
black_rat,51.05796,-1.3069497,winchester,united_kingdom,modern,na,https://guide.michelin.com/gb/en/hampshire/winchester/restaurant/black-rat,1
matt_worswick_at_the_latymer,51.35764,-0.7086128,bagshot,united_kingdom,modern,na,https://guide.michelin.com/gb/en/surrey/bagshot/restaurant/matt-worswick-at-the-latymer,1
coworth_park,51.40463,-0.616715,ascot,united_kingdom,modern,na,https://guide.michelin.com/gb/en/windsor-and-maidenhead/ascot/restaurant/coworth-park,1
tudor_room,51.41759,-0.545847,egham,united_kingdom,modern,na,https://guide.michelin.com/gb/en/surrey/egham/restaurant/tudor-room,1
the_glasshouse,51.4771,-0.28574,kew,united_kingdom,modern,na,https://guide.michelin.com/gb/en/greater-london/kew/restaurant/the-glasshouse,1
la_trompette,51.49222,-0.25619,chiswick,united_kingdom,british,na,https://guide.michelin.com/gb/en/greater-london/chiswick/restaurant/la-trompette,1
tim_allen_s_flitch_of_bacon,51.86747,0.404134,little_dunmow,united_kingdom,british,na,https://guide.michelin.com/gb/en/essex/little-dunmow/restaurant/tim-allen-s-flitch-of-bacon,1
river_cafe,51.48395,-0.22423,hammersmith,united_kingdom,italian,na,https://guide.michelin.com/gb/en/greater-london/hammersmith/restaurant/river-cafe,1
kitchen_w8,51.49918,-0.19692,kensington,united_kingdom,modern,na,https://guide.michelin.com/gb/en/greater-london/kensington/restaurant/kitchen-w8,1
trishna,51.51834,-0.153031,marylebone,united_kingdom,indian,na,https://guide.michelin.com/gb/en/greater-london/marylebone/restaurant/trishna,1
roganic,51.518314,-0.1520875,marylebone,united_kingdom,british,na,https://guide.michelin.com/gb/en/greater-london/marylebone/restaurant/roganic,1
locanda_locatelli,51.51514,-0.15675,marylebone,united_kingdom,italian,na,https://guide.michelin.com/gb/en/greater-london/marylebone/restaurant/locanda-locatelli,1
texture,51.51488,-0.15664,marylebone,united_kingdom,creative,na,https://guide.michelin.com/gb/en/greater-london/marylebone/restaurant/texture,1
portland,51.519726,-0.142555,regents_park,united_kingdom,modern,na,https://guide.michelin.com/gb/en/greater-london/regent-s-park/restaurant/portland,1
harwood_arms,51.48291,-0.19651,fulham,united_kingdom,british,na,https://guide.michelin.com/gb/en/greater-london/fulham/restaurant/harwood-arms,1
pied_a_terre,51.519,-0.1351099999999999,bloomsbury,united_kingdom,creative,na,https://guide.michelin.com/gb/en/greater-london/bloomsbury/restaurant/pied-a-terre,1
the_ninth,51.51875,-0.1350068,bloomsbury,united_kingdom,mediterranean,na,https://guide.michelin.com/gb/en/greater-london/bloomsbury/restaurant/the-ninth,1
kai,51.50871,-0.15162,mayfair,united_kingdom,chinese,na,https://guide.michelin.com/gb/en/greater-london/mayfair/restaurant/kai123638,1
pollen_street_social,51.5133,-0.14234,mayfair,united_kingdom,creative,na,https://guide.michelin.com/gb/en/greater-london/mayfair/restaurant/pollen-street-social,1
hakkasan_mayfair,51.51037,-0.14475,mayfair,united_kingdom,chinese,na,https://guide.michelin.com/gb/en/greater-london/mayfair/restaurant/hakkasan-mayfair,1
the_square,51.51069,-0.14401,mayfair,united_kingdom,french,na,https://guide.michelin.com/gb/en/greater-london/mayfair/restaurant/the-square69391,1
alyn_williams_at_the_westbury,51.51118,-0.14303,mayfair,united_kingdom,modern,na,https://guide.michelin.com/gb/en/greater-london/mayfair/restaurant/alyn-williams-at-the-westbury,1
benares,51.50973,-0.14494,mayfair,united_kingdom,indian,na,https://guide.michelin.com/gb/en/greater-london/mayfair/restaurant/benares,1
hakkasan_hanway_place,51.5171,-0.13144,bloomsbury,united_kingdom,chinese,na,https://guide.michelin.com/gb/en/greater-london/bloomsbury/restaurant/hakkasan-hanway-place,1
social_eating_house,51.51383,-0.13673,soho,united_kingdom,modern,na,https://guide.michelin.com/gb/en/greater-london/soho/restaurant/social-eating-house,1
galvin_at_windows,51.505390000000006,-0.15039,mayfair,united_kingdom,modern,na,https://guide.michelin.com/gb/en/greater-london/mayfair/restaurant/galvin-at-windows,1
murano,51.50707,-0.14722,mayfair,united_kingdom,italian,na,https://guide.michelin.com/gb/en/greater-london/mayfair/restaurant/murano,1
marcus,51.50171,-0.15614,belgravia,united_kingdom,modern,na,https://guide.michelin.com/gb/en/greater-london/belgravia/restaurant/marcus,1
sabor,51.511368,-0.1396773,mayfair,united_kingdom,spanish,na,https://guide.michelin.com/gb/en/greater-london/mayfair/restaurant/sabor,1
clock_house,51.30044,-0.49287,ripley,united_kingdom,modern,na,https://guide.michelin.com/gb/en/surrey/ripley/restaurant/clock-house,1
yauatcha_soho,51.51367,-0.1352,soho,united_kingdom,chinese,na,https://guide.michelin.com/gb/en/greater-london/soho/restaurant/yauatcha-soho,1
celeste,51.502422,-0.1522617,belgravia,united_kingdom,french,na,https://guide.michelin.com/gb/en/greater-london/belgravia/restaurant/celeste,1
gymkhana,51.50854,-0.14154,mayfair,united_kingdom,indian,na,https://guide.michelin.com/gb/en/greater-london/mayfair/restaurant/gymkhana,1
amaya,51.49912,-0.1573099999999999,belgravia,united_kingdom,indian,na,https://guide.michelin.com/gb/en/greater-london/belgravia/restaurant/amaya,1
petrus,51.49951,-0.15662,belgravia,united_kingdom,french,na,https://guide.michelin.com/gb/en/greater-london/belgravia/restaurant/petrus284688,1
veeraswamy,51.51008,-0.13809,mayfair,united_kingdom,indian,na,https://guide.michelin.com/gb/en/greater-london/mayfair/restaurant/veeraswamy,1
barrafina,51.51375,-0.1318,soho,united_kingdom,spanish,na,https://guide.michelin.com/gb/en/greater-london/soho/restaurant/barrafina,1
hide,51.506077000000005,-0.144289,mayfair,united_kingdom,british,na,https://guide.michelin.com/gb/en/greater-london/mayfair/restaurant/hide,1
ritz_restaurant,51.50728,-0.1414099999999999,westminster,united_kingdom,british,na,https://guide.michelin.com/gb/en/greater-london/westminster/restaurant/ritz-restaurant,1
elystan_street,51.491240000000005,-0.16724,chelsea,united_kingdom,british,na,https://guide.michelin.com/gb/en/greater-london/chelsea/restaurant/elystan-street,1
seven_park_place,51.50623,-0.13998,saint_jamess,united_kingdom,modern,na,https://guide.michelin.com/gb/en/greater-london/saint-james-s/restaurant/seven-park-place,1
ikoyi,51.509212,-0.1334389,saint_jamess,united_kingdom,creative,na,https://guide.michelin.com/gb/en/greater-london/saint-james-s/restaurant/ikoyi,1
aquavit,51.508713,-0.1334072,saint_jamess,united_kingdom,scandinavian,na,https://guide.michelin.com/gb/en/greater-london/saint-james-s/restaurant/aquavit501082,1
five_fields,51.49168,-0.16124,chelsea,united_kingdom,modern,na,https://guide.michelin.com/gb/en/greater-london/chelsea/restaurant/five-fields,1
dining_room_at_the_goring,51.49763,-0.14556,victoria,united_kingdom,british,na,https://guide.michelin.com/gb/en/greater-london/victoria/restaurant/dining-room-at-the-goring,1
st_john,51.52064,-0.1013299999999999,clerkenwell,united_kingdom,british,na,https://guide.michelin.com/gb/en/greater-london/clerkenwell/restaurant/st-john,1
quilon,51.49863,-0.13726,victoria,united_kingdom,indian,na,https://guide.michelin.com/gb/en/greater-london/victoria/restaurant/quilon,1
club_gascon,51.51857,-0.10031,london,united_kingdom,french,na,https://guide.michelin.com/gb/en/greater-london/london/restaurant/club-gascon,1
a_wong,51.49318,-0.14128,victoria,united_kingdom,chinese,na,https://guide.michelin.com/gb/en/greater-london/victoria/restaurant/a-wong,1
the_clove_club,51.52711,-0.07927,shoreditch,united_kingdom,modern,na,https://guide.michelin.com/gb/en/greater-london/shoreditch/restaurant/the-clove-club,1
leroy,51.524086,-0.0815337,shoreditch,united_kingdom,british,na,https://guide.michelin.com/gb/en/greater-london/shoreditch/restaurant/leroy,1
angler,51.51894,-0.08625,finsbury,united_kingdom,seafood,na,https://guide.michelin.com/gb/en/greater-london/finsbury/restaurant/angler392235,1
brat,51.52427,-0.0767681,shoreditch,united_kingdom,british,na,https://guide.michelin.com/gb/en/greater-london/shoreditch/restaurant/brat,1
lyle_s,51.52378,-0.07704,shoreditch,united_kingdom,british,na,https://guide.michelin.com/gb/en/greater-london/shoreditch/restaurant/lyle-s,1
galvin_la_chapelle,51.52032,-0.0781,spitalfields,united_kingdom,french,na,https://guide.michelin.com/gb/en/greater-london/spitalfields/restaurant/galvin-la-chapelle,1
city_social,51.51521,-0.08431,city_of_london,united_kingdom,modern,na,https://guide.michelin.com/gb/en/greater-london/city-of-london/restaurant/city-social,1
la_dame_de_pic,51.510372,-0.0788981,city_of_london,united_kingdom,french,na,https://guide.michelin.com/gb/en/greater-london/city-of-london/restaurant/la-dame-de-pic,1
story,51.50268,-0.07774,bermondsey,united_kingdom,modern,na,https://guide.michelin.com/gb/en/greater-london/bermondsey/restaurant/story,1
trinity,51.46336,-0.14148,clapham_common,united_kingdom,modern,na,https://guide.michelin.com/gb/en/greater-london/clapham-common/restaurant/trinity,1
chez_bruce,51.44607,-0.1655299999999999,wandsworth,united_kingdom,french,na,https://guide.michelin.com/gb/en/greater-london/wandsworth/restaurant/chez-bruce,1
sorrel,51.228825,-0.3346741,dorking,united_kingdom,british,na,https://guide.michelin.com/gb/en/surrey/dorking/restaurant/sorrel545459,1
restaurant_tristan,51.062347,-0.326034,horsham,united_kingdom,british,na,https://guide.michelin.com/gb/en/west-sussex/horsham/restaurant/restaurant-tristan,1
gravetye_manor,51.08932,-0.05691,gravetye,united_kingdom,british,na,https://guide.michelin.com/gb/en/west-sussex/gravetye/restaurant/gravetye-manor,1
the_sportsman,51.34392,0.95885,seasalter,united_kingdom,british,na,https://guide.michelin.com/gb/en/kent/seasalter/restaurant/the-sportsman,1
west_house,51.11521,0.64215,biddenden,united_kingdom,british,na,https://guide.michelin.com/gb/en/kent/biddenden/restaurant/west-house,1
fordwich_arms,51.295284,1.1261871,fordwich,united_kingdom,modern,na,https://guide.michelin.com/gb/en/kent/fordwich/restaurant/fordwich-arms,1
samphire,49.18488,-2.1057,sainthelier,united_kingdom,modern,na,https://guide.michelin.com/gb/en/saint-helier/saint-helier-saint-helier/restaurant/samphire392987,1
bohemia,49.181225,-2.102417,sainthelier,united_kingdom,modern,na,https://guide.michelin.com/gb/en/saint-helier/saint-helier-saint-helier/restaurant/bohemia,1
sennsrestaurant,47.83636,13.06389,salzburg,austria,creative,5,https://guide.michelin.com/at/en/salzburg-region/salzburg/restaurant/senns-restaurant,2
ikarus,47.79536,13.00695,salzburg,austria,creative,5,https://guide.michelin.com/at/en/salzburg-region/salzburg/restaurant/ikarus,2
mraz_sohn,48.23129,16.37637,wien,austria,creative,5,https://guide.michelin.com/at/en/vienna/wien/restaurant/mraz-sohn,2
konstantin_filippou,48.21056,16.37996,wien,austria,modern,5,https://guide.michelin.com/at/en/vienna/wien/restaurant/konstantin-filippou,2
silvio_nickol_gourmet_restaurant,48.20558,16.376929999999998,wien,austria,modern,5,https://guide.michelin.com/at/en/vienna/wien/restaurant/silvio-nickol-gourmet-restaurant,2
steirereck_im_stadtpark,48.202290000000005,16.3805,wien,austria,creative,5,https://guide.michelin.com/at/en/vienna/wien/restaurant/steirereck-im-stadtpark,2
baume,37.4285,-122.14272,san_francisco,california,contemporary,4,https://guide.michelin.com/us/en/california/south-san-francisco/restaurant/baume,2
commis,37.82476,-122.25505,san_francisco,california,contemporary,4,https://guide.michelin.com/us/en/california/san-francisco/restaurant/commis,2
californios,37.75555,-122.417145,san_francisco,california,mexican,4,https://guide.michelin.com/us/en/california/san-francisco/restaurant/californios,2
lazy_bear,37.760204,-122.41969,san_francisco,california,contemporary,4,https://guide.michelin.com/us/en/california/san-francisco/restaurant/lazy-bear,2
saison,37.76327,-122.41543,san_francisco,california,californian,4,https://guide.michelin.com/us/en/california/san-francisco/restaurant/saison,2
campton_place,37.78923,-122.40665,san_francisco,california,indian,4,https://guide.michelin.com/us/en/california/san-francisco/restaurant/campton-place,2
coi,37.79812,-122.40331,san_francisco,california,contemporary,4,https://guide.michelin.com/us/en/california/san-francisco/restaurant/coi,2
acquerello,37.79167,-122.42131,san_francisco,california,italian,4,https://guide.michelin.com/us/en/california/san-francisco/restaurant/acquerello,2
urasawa,34.067352,-118.40067,los_angeles,california,japanese,4,https://guide.michelin.com/us/en/california/us-los-angeles/restaurant/urasawa,2
sushi_ginza_onodera,34.08238,-118.37654,los_angeles,california,japanese,4,https://guide.michelin.com/us/en/california/us-los-angeles/restaurant/sushi-ginza-onodera559850,2
somni,34.070095,-118.37649,los_angeles,california,contemporary,4,https://guide.michelin.com/us/en/california/us-los-angeles/restaurant/somni,2
providence,34.083523,-118.33019,los_angeles,california,seafood,4,https://guide.michelin.com/us/en/california/us-los-angeles/restaurant/providence,2
n_naka,34.02526,-118.41206,los_angeles,california,contemporary,4,https://guide.michelin.com/us/en/california/us-los-angeles/restaurant/n-naka,2
vespertine,34.024204,-118.38166,los_angeles,california,contemporary,4,https://guide.michelin.com/us/en/california/us-los-angeles/restaurant/vespertine,2
smyth,41.885,-87.660736,chicago,chicago,contemporary,4,https://guide.michelin.com/us/en/illinois/chicago/restaurant/smyth,2
oriole,41.886196000000005,-87.64513000000001,chicago,chicago,contemporary,4,https://guide.michelin.com/us/en/illinois/chicago/restaurant/oriole,2
acadia,41.85904,-87.62562,chicago,chicago,contemporary,4,https://guide.michelin.com/us/en/illinois/chicago/restaurant/acadia,2
koks,62.13667,-7.022025,leynar,denmark,creative,4,https://guide.michelin.com/dk/en/faroe-islands/leynar/restaurant/koks558780,2
henne_kirkeby_kro,55.72682,8.242021000000001,henne,denmark,classic,3,https://guide.michelin.com/dk/en/southern-denmark/henne/restaurant/henne-kirkeby-kro,2
aoc,55.68305,12.58921,kbenhavn,denmark,modern,4,https://guide.michelin.com/dk/en/capital-region/kobenhavn/restaurant/a%E2%80%9Ao%E2%80%9Ac,2
noma,55.68332,12.61006,kbenhavn,denmark,creative,4,https://guide.michelin.com/dk/en/capital-region/kobenhavn/restaurant/noma,2
kadeau_copenhagen,55.67219,12.58848,kbenhavn,denmark,modern,4,https://guide.michelin.com/dk/en/capital-region/kobenhavn/restaurant/kadeau-copenhagen,2
spondi,37.96525,23.742971,athina,greece,french,5,https://guide.michelin.com/gr/en/attica/athina/restaurant/spondi,2
sun_tung_lok,22.30099,114.17221,hong_kong,hong_kong,cantonese,2,https://guide.michelin.com/hk/en/hong-kong-region/hong-kong/restaurant/sun-tung-lok,2
yan_toh_heen,22.293337,114.17395,hong_kong,hong_kong,cantonese,3,https://guide.michelin.com/hk/en/hong-kong-region/hong-kong/restaurant/yan-toh-heen,2
tin_lung_heen,22.30357,114.16007,hong_kong,hong_kong,cantonese,3,https://guide.michelin.com/hk/en/hong-kong-region/hong-kong/restaurant/tin-lung-heen,2
tenku_ryugin,22.30331,114.16021,hong_kong,hong_kong,japanese,5,https://guide.michelin.com/hk/en/hong-kong-region/hong-kong/restaurant/tenku-ryugin,2
forum,22.281616,114.1824,hong_kong,hong_kong,cantonese,2,https://guide.michelin.com/hk/en/hong-kong-region/hong-kong/restaurant/forum,2
sushi_saito,22.286467,114.15677,hong_kong,hong_kong,sushi,5,https://guide.michelin.com/hk/en/hong-kong-region/hong-kong/restaurant/sushi-saito,2
pierre,22.282127,114.15948,hong_kong,hong_kong,french,4,https://guide.michelin.com/hk/en/hong-kong-region/hong-kong/restaurant/pierre,2
ying_jee_club,22.284338,114.156654,hong_kong,hong_kong,cantonese,2,https://guide.michelin.com/hk/en/hong-kong-region/hong-kong/restaurant/ying-jee-club,2
ecriture,22.28315,114.1554,hong_kong,hong_kong,french,3,https://guide.michelin.com/hk/en/hong-kong-region/hong-kong/restaurant/ecriture,2
ta_vie,22.282766,114.15529,hong_kong,hong_kong,innovative,5,https://guide.michelin.com/hk/en/hong-kong-region/hong-kong/restaurant/ta-vie,2
amber,22.280596,114.15764,hong_kong,hong_kong,french,4,https://guide.michelin.com/hk/en/hong-kong-region/hong-kong/restaurant/amber569032,2
kashiwaya,22.280643,114.15674,hong_kong,hong_kong,japanese,4,https://guide.michelin.com/hk/en/hong-kong-region/hong-kong/restaurant/kashiwaya,2
onyx,47.49712,19.05067,budapest,hungary,modern,5,https://guide.michelin.com/hu/en/central-hungary/budapest/restaurant/onyx,2
feng_wei_ju,22.18996,113.54794,macau,macau,hunanese_and_sichuan,1,https://guide.michelin.com/mo/en/macau-region/macau/restaurant/feng-wei-ju,2
golden_flower,22.18753,113.54806,macau,macau,chinese,2,https://guide.michelin.com/mo/en/macau-region/macau/restaurant/golden-flower,2
mizumi_macau_,22.188755,113.54488,macau,macau,japanese,2,https://guide.michelin.com/mo/en/macau-region/macau/restaurant/mizumi-macau,2
the_tasting_room,22.14958,113.56505,macau,macau,french,3,https://guide.michelin.com/mo/en/macau-region/macau/restaurant/the-tasting-room,2
alain_ducasse_at_morpheus,22.14293,113.563774,macau,macau,french,5,https://guide.michelin.com/mo/en/macau-region/macau/restaurant/alain-ducasse-at-morpheus,2
l_atelier_de_joel_robuchon,40.742905,-74.00769,new_york,new_york_city,french,4,https://guide.michelin.com/us/en/new-york-state/new-york/restaurant/l-atelier-de-joel-robuchon562505,2
jungsik,40.718685,-74.00910999999999,new_york,new_york_city,korean,4,https://guide.michelin.com/us/en/new-york-state/new-york/restaurant/jungsik,2
atera,40.716797,-74.00565,new_york,new_york_city,contemporary,4,https://guide.michelin.com/us/en/new-york-state/new-york/restaurant/atera,2
jean_georges,40.76907,-73.98155,new_york,new_york_city,contemporary,4,https://guide.michelin.com/us/en/new-york-state/new-york/restaurant/jean-georges,2
marea,40.76749,-73.98114,new_york,new_york_city,seafood,4,https://guide.michelin.com/us/en/new-york-state/new-york/restaurant/marea,2
gabriel_kreuther,40.75397,-73.982025,new_york,new_york_city,contemporary,4,https://guide.michelin.com/us/en/new-york-state/new-york/restaurant/gabriel-kreuther,2
ichimura_at_uchu,40.721832,-73.99011999999999,new_york,new_york_city,japanese,4,https://guide.michelin.com/us/en/new-york-state/new-york/restaurant/ichimura-at-uchu,2
sushi_ginza_onodera,40.752396000000005,-73.981575,new_york,new_york_city,japanese,4,https://guide.michelin.com/us/en/new-york-state/new-york/restaurant/sushi-ginza-onodera,2
ko,40.72909,-73.98448,new_york,new_york_city,contemporary,4,https://guide.michelin.com/us/en/new-york-state/new-york/restaurant/ko,2
the_modern,40.76106,-73.97628,new_york,new_york_city,contemporary,4,https://guide.michelin.com/us/en/new-york-state/new-york/restaurant/the-modern,2
aquavit,40.76078,-73.97214,new_york,new_york_city,scandinavian,4,https://guide.michelin.com/us/en/new-york-state/new-york/restaurant/aquavit,2
daniel,40.7666,-73.96745,new_york,new_york_city,french,4,https://guide.michelin.com/us/en/new-york-state/new-york/restaurant/daniel,2
aska,40.71222,-73.96642,new_york,new_york_city,scandinavian,4,https://guide.michelin.com/us/en/new-york-state/new-york/restaurant/aska,2
blanca,40.70492,-73.93354000000001,new_york,new_york_city,contemporary,4,https://guide.michelin.com/us/en/new-york-state/new-york/restaurant/blanca,2
patrick_guilbaud,53.338930000000005,-6.25283,city_centre,ireland,french,na,https://guide.michelin.com/ie/en/dublin/city-centre/restaurant/patrick-guilbaud,2
oro,-22.98601,-43.22471,rio_de_janeiro,rio_de_janeiro,creative,5,https://guide.michelin.com/br/en/rio-de-janeiro-region/rio-de-janeiro/restaurant/oro,2
tuju,-23.55653,-46.69083,sao_paulo,sao_paulo,creative,5,https://guide.michelin.com/br/en/sao-paulo-region/sao-paulo/restaurant/tuju,2
dom,-23.56618,-46.66742,sao_paulo,sao_paulo,creative,5,https://guide.michelin.com/br/en/sao-paulo-region/sao-paulo/restaurant/d-o-m,2
kojima,37.52559,127.04193,seoul,south_korea,sushi,5,https://guide.michelin.com/kr/en/seoul-capital-area/kr-seoul/restaurant/kojima,2
jungsik,37.525585,127.04107,seoul,south_korea,korean,3,https://guide.michelin.com/kr/en/seoul-capital-area/kr-seoul/restaurant/jungsik511965,2
kwonsooksoo,37.526752,127.03571,seoul,south_korea,korean,3,https://guide.michelin.com/kr/en/seoul-capital-area/kr-seoul/restaurant/kwonsooksoo,2
mingles,37.52219,127.0392,seoul,south_korea,korean,3,https://guide.michelin.com/kr/en/seoul-capital-area/kr-seoul/restaurant/mingles,2
alla_prima,37.518440000000005,127.03008,seoul,south_korea,innovative,3,https://guide.michelin.com/kr/en/seoul-capital-area/kr-seoul/restaurant/alla-prima,2
waku_ghin,1.283175,103.8598,singapore,singapore,japanese,5,https://guide.michelin.com/sg/en/singapore-region/singapore/restaurant/waku-ghin,2
odette,1.2896458999999998,103.8516,singapore,singapore,french,4,https://guide.michelin.com/sg/en/singapore-region/singapore/restaurant/odette,2
shoukouwa,1.2863698,103.854,singapore,singapore,sushi,5,https://guide.michelin.com/sg/en/singapore-region/singapore/restaurant/shoukouwa,2
shisen_hanten,1.302395,103.8365,singapore,singapore,chinese,1,https://guide.michelin.com/sg/en/singapore-region/singapore/restaurant/shisen-hanten,2
les_amis,1.3066648,103.8314,singapore,singapore,french,3,https://guide.michelin.com/sg/en/singapore-region/singapore/restaurant/les-amis,2
faviken_magasinet,63.43626,13.29337,jarpen,sweden,creative,4,https://guide.michelin.com/se/en/jamtland/jarpen/restaurant/faviken-magasinet,2
gastrologik,59.33365,18.0807,stockholm,sweden,creative,4,https://guide.michelin.com/se/en/stockholm-region/stockholm/restaurant/gastrologik,2
oaxen_krog,59.322342000000006,18.101831,stockholm,sweden,creative,4,https://guide.michelin.com/se/en/stockholm-region/stockholm/restaurant/oaxen-krog,2
vollmers,55.604427,12.995848,malmo,sweden,creative,4,https://guide.michelin.com/se/en/skane/malmo/restaurant/vollmers,2
daniel_berlin,55.61246,13.99265,skane_tranas,sweden,creative,4,https://guide.michelin.com/se/en/skane/skane-tranas/restaurant/daniel-berlin,2
raw,25.082666,121.559525,taipei,taipei,innovative,3,https://guide.michelin.com/tw/en/taipei-region/taipei/restaurant/raw,2
shoun_ryugin,25.08258,121.5595,taipei,taipei,japanese,4,https://guide.michelin.com/tw/en/taipei-region/taipei/restaurant/shoun-ryugin,2
tairroir,25.082718,121.559296,taipei,taipei,innovative,3,https://guide.michelin.com/tw/en/taipei-region/taipei/restaurant/tairroir,2
sushi_amamoto,25.037945,121.55487,taipei,taipei,sushi,4,https://guide.michelin.com/tw/en/taipei-region/taipei/restaurant/sushi-amamoto,2
the_guest_house,25.04486,121.52198,taipei,taipei,sichuan_huai_yang,2,https://guide.michelin.com/tw/en/taipei-region/taipei/restaurant/the-guest-house,2
gaggan,13.737679,100.542145,bangkok,thailand,innovative,5,https://guide.michelin.com/th/en/bangkok-region/bangkok/restaurant/gaggan,2
suhring,13.710947,100.545654,bangkok,thailand,european,4,https://guide.michelin.com/th/en/bangkok-region/bangkok/restaurant/suhring,2
mezzaluna,13.722148,100.51691,bangkok,thailand,innovative,5,https://guide.michelin.com/th/en/bangkok-region/bangkok/restaurant/mezzaluna,2
le_normandie,13.723197,100.513855,bangkok,thailand,french,4,https://guide.michelin.com/th/en/bangkok-region/bangkok/restaurant/le-normandie,2
minibar,38.896294,-77.02386,washington_dc,washington_dc,contemporary,4,https://guide.michelin.com/us/en/washington/washington-dc/restaurant/minibar,2
pineapple_and_pearls,38.880707,-76.99514,washington_dc,washington_dc,contemporary,4,https://guide.michelin.com/us/en/washington/washington-dc/restaurant/pineapple-and-pearls,2
andrew_fairlie_at_gleneagles,56.28339,-3.75149,auchterarder,united_kingdom,french,na,https://guide.michelin.com/gb/en/perth-and-kinross/auchterarder/restaurant/andrew-fairlie-at-gleneagles,2
l_enclume,54.201885,-2.953807,cartmel,united_kingdom,creative,na,https://guide.michelin.com/gb/en/cumbria/cartmel/restaurant/l-enclume,2
raby_hunt,54.56647,-1.689258,summerhouse,united_kingdom,british,na,https://guide.michelin.com/gb/en/darlington/summerhouse/restaurant/raby-hunt,2
moor_hall,53.54162,-2.8895495,aughton,united_kingdom,british,na,https://guide.michelin.com/gb/en/lancashire/aughton/restaurant/moor-hall,2
restaurant_sat_bains,52.924380000000006,-1.1733198,nottingham,united_kingdom,creative,na,https://guide.michelin.com/gb/en/nottingham/nottingham/restaurant/restaurant-sat-bains,2
restaurant_nathan_outlaw,50.594086,-4.82854,port_isaac,united_kingdom,seafood,na,https://guide.michelin.com/gb/en/cornwall/port-isaac/restaurant/restaurant-nathan-outlaw,2
belmond_le_manoir_aux_quat_saisons,51.71674,-1.09187,great_milton,united_kingdom,french,na,https://guide.michelin.com/gb/en/oxfordshire/great-milton/restaurant/belmond-le-manoir-aux-quat-saisons,2
midsummer_house,52.21243,0.12779,cambridge,united_kingdom,modern,na,https://guide.michelin.com/gb/en/cambridgeshire/cambridge/restaurant/midsummer-house,2
hand_and_flowers,51.57031,-0.78113,marlow,united_kingdom,british,na,https://guide.michelin.com/gb/en/buckinghamshire/marlow/restaurant/hand-and-flowers,2
ledbury,51.516740000000006,-0.20007,north_kensington,united_kingdom,modern,na,https://guide.michelin.com/gb/en/greater-london/north-kensington/restaurant/ledbury,2
core_by_clare_smyth,51.51261,-0.2030516,north_kensington,united_kingdom,british,na,https://guide.michelin.com/gb/en/greater-london/north-kensington/restaurant/core-by-clare-smyth,2
le_gavroche,51.51127,-0.15517,mayfair,united_kingdom,french,na,https://guide.michelin.com/gb/en/greater-london/mayfair/restaurant/le-gavroche,2
kitchen_table_at_bubbledogs,51.52041,-0.13647,bloomsbury,united_kingdom,modern,na,https://guide.michelin.com/gb/en/greater-london/bloomsbury/restaurant/kitchen-table-at-bubbledogs,2
helene_darroze_at_the_connaught,51.5101,-0.1495701,mayfair,united_kingdom,modern,na,https://guide.michelin.com/gb/en/greater-london/mayfair/restaurant/helene-darroze-at-the-connaught,2
dinner_by_heston_blumenthal,51.50208,-0.16011,hyde_park,united_kingdom,british,na,https://guide.michelin.com/gb/en/greater-london/hyde-park/restaurant/dinner-by-heston-blumenthal,2
umu,51.5113,-0.14455,mayfair,united_kingdom,japanese,na,https://guide.michelin.com/gb/en/greater-london/mayfair/restaurant/umu,2
sketch_the_lecture_room_library_,51.51287,-0.1413599999999999,mayfair,united_kingdom,french,na,https://guide.michelin.com/gb/en/greater-london/mayfair/restaurant/sketch-the-lecture-room-library,2
greenhouse,51.50769,-0.14926,mayfair,united_kingdom,creative,na,https://guide.michelin.com/gb/en/greater-london/mayfair/restaurant/greenhouse69393,2
claude_bosi_at_bibendum,51.49341,-0.1690892999999999,chelsea,united_kingdom,french,na,https://guide.michelin.com/gb/en/greater-london/chelsea/restaurant/claude-bosi-at-bibendum,2
amador,48.25406,16.35915,wien,austria,creative,5,https://guide.michelin.com/at/en/vienna/wien/restaurant/amador,3
manresa,37.22761,-121.98071000000002,san_francisco,california,contemporary,4,https://guide.michelin.com/us/en/california/south-san-francisco/restaurant/manresa,3
benu,37.78521,-122.39876,san_francisco,california,asian,4,https://guide.michelin.com/us/en/california/san-francisco/restaurant/benu,3
quince,37.79762,-122.40337,san_francisco,california,contemporary,4,https://guide.michelin.com/us/en/california/san-francisco/restaurant/quince,3
atelier_crenn,37.79835,-122.43586,san_francisco,california,contemporary,4,https://guide.michelin.com/us/en/california/san-francisco/restaurant/atelier-crenn,3
the_french_laundry,38.40443,-122.36474,san_francisco,california,contemporary,4,https://guide.michelin.com/us/en/california/san-francisco/restaurant/the-french-laundry,3
the_restaurant_at_meadowood,38.52025,-122.46479,san_francisco,california,contemporary,4,https://guide.michelin.com/us/en/california/san-francisco/restaurant/the-restaurant-at-meadowood,3
singlethread,38.612164,-122.869705,san_francisco,california,contemporary,4,https://guide.michelin.com/us/en/california/san-francisco/restaurant/singlethread,3
alinea,41.91328,-87.64798,chicago,chicago,contemporary,4,https://guide.michelin.com/us/en/illinois/chicago/restaurant/alinea,3
geranium,55.70393000000001,12.57197,kbenhavn,denmark,creative,4,https://guide.michelin.com/dk/en/capital-region/kobenhavn/restaurant/geranium,3
t_ang_court,22.296572,114.1698,hong_kong,hong_kong,cantonese,3,https://guide.michelin.com/hk/en/hong-kong-region/hong-kong/restaurant/t-ang-court,3
bo_innovation,22.27614,114.171,hong_kong,hong_kong,innovative,5,https://guide.michelin.com/hk/en/hong-kong-region/hong-kong/restaurant/bo-innovation,3
lung_king_heen,22.28665,114.15674,hong_kong,hong_kong,cantonese,4,https://guide.michelin.com/hk/en/hong-kong-region/hong-kong/restaurant/lung-king-heen,3
caprice,22.286646,114.15662,hong_kong,hong_kong,french,4,https://guide.michelin.com/hk/en/hong-kong-region/hong-kong/restaurant/caprice,3
otto_e_mezzo_bombana,22.28189,114.15839,hong_kong,hong_kong,italian,4,https://guide.michelin.com/hk/en/hong-kong-region/hong-kong/restaurant/8%C2%BD-otto-e-mezzo-bombana,3
l_atelier_de_joel_robuchon,22.281199,114.15816,hong_kong,hong_kong,french,4,https://guide.michelin.com/hk/en/hong-kong-region/hong-kong/restaurant/l-atelier-de-joel-robuchon,3
sushi_shikon,22.28511,114.15208,hong_kong,hong_kong,sushi,5,https://guide.michelin.com/hk/en/hong-kong-region/hong-kong/restaurant/sushi-shikon,3
the_eight,22.190475,113.54341,macau,macau,chinese,3,https://guide.michelin.com/mo/en/macau-region/macau/restaurant/the-eight,3
robuchon_au_dome,22.189949,113.54395,macau,macau,french,4,https://guide.michelin.com/mo/en/macau-region/macau/restaurant/robuchon-au-dome,3
jade_dragon,22.149137,113.56715,macau,macau,cantonese,2,https://guide.michelin.com/mo/en/macau-region/macau/restaurant/jade-dragon,3
maaemo,59.910477,10.760408,oslo,norway,modern,4,https://guide.michelin.com/no/en/oslo-region/oslo/restaurant/maaemo,3
masa,40.76855,-73.98335,new_york,new_york_city,japanese,4,https://guide.michelin.com/us/en/new-york-state/new-york/restaurant/masa,3
